[
  {
    "RetailAccounts": "Brookshire s 18",
    "Address": "5828 Line Avenue",
    "City": "Shreveport",
    "State": "LA",
    "Zip Codes": "71106",
    "coordinates": [
      -93.747236,
      32.455793
    ]
  },
  {
    "RetailAccounts": "Kroger 533",
    "Address": "9484 Ellerbe Road Ste 100",
    "City": "Shreveport",
    "State": "LA",
    "Zip Codes": "71106",
    "coordinates": [
      -93.729052,
      32.393701
    ]
  },
  {
    "RetailAccounts": "AAFES Shoppette-1010332",
    "Address": "200 Wilbur Wright Drive",
    "City": "Barksdale Afb",
    "State": "LA",
    "Zip Codes": "71110",
    "coordinates": [
      -93.680311,
      32.496383
    ]
  },
  {
    "RetailAccounts": "Thrifty 08",
    "Address": "3434 Youree Drive",
    "City": "Shreveport",
    "State": "LA",
    "Zip Codes": "71105",
    "coordinates": [
      -93.72258,
      32.47692
    ]
  },
  {
    "RetailAccounts": "Sam s Club 8273",
    "Address": "7400 Youree Drive",
    "City": "Shreveport",
    "State": "LA",
    "Zip Codes": "71105",
    "coordinates": [
      -93.719501,
      32.438307
    ]
  },
  {
    "RetailAccounts": "Whole Foods Market",
    "Address": "1380 East 70th Street",
    "City": "Shreveport",
    "State": "LA",
    "Zip Codes": "71105",
    "coordinates": [
      -93.727051,
      32.444017
    ]
  },
  {
    "RetailAccounts": "Cuban Liquor",
    "Address": "928 Pierremont Road",
    "City": "Shreveport",
    "State": "LA",
    "Zip Codes": "71106",
    "coordinates": [
      -93.749579,
      32.45498
    ]
  },
  {
    "RetailAccounts": "Thrifty 16",
    "Address": "9468 Ellerbe Road",
    "City": "Shreveport",
    "State": "LA",
    "Zip Codes": "71106",
    "coordinates": [
      -93.72814,
      32.39584
    ]
  },
  {
    "RetailAccounts": "Kroger 539",
    "Address": "6652 Youree Drive",
    "City": "Shreveport",
    "State": "LA",
    "Zip Codes": "71105",
    "coordinates": [
      -93.721807,
      32.444659
    ]
  },
  {
    "RetailAccounts": "WHOLE FOODS MARKET #10522",
    "Address": "300 N BROAD ST",
    "City": "NEW ORLEANS",
    "State": "LA",
    "Zip Codes": "70119",
    "coordinates": [
      -90.08474,
      29.967318
    ]
  },
  {
    "RetailAccounts": "Brookshire s 47",
    "Address": "4860 Airline Drive",
    "City": "Bossier City",
    "State": "LA",
    "Zip Codes": "71111",
    "coordinates": [
      -93.712273,
      32.588537
    ]
  },
  {
    "RetailAccounts": "Brookshire s 57",
    "Address": "1125 Highway 80",
    "City": "Haughton",
    "State": "LA",
    "Zip Codes": "71037",
    "coordinates": [
      -93.610733,
      32.557372
    ]
  },
  {
    "RetailAccounts": "Brookshire s 49",
    "Address": "10465 Norris Ferry Road",
    "City": "Shreveport",
    "State": "LA",
    "Zip Codes": "71106",
    "coordinates": [
      -93.711081,
      32.355656
    ]
  },
  {
    "RetailAccounts": "ROBERT FRESH MARKET #134",
    "Address": "2222 ST CLAUDE AVE",
    "City": "NEW ORLEANS",
    "State": "LA",
    "Zip Codes": "70117",
    "coordinates": [
      -90.056063,
      29.96835
    ]
  },
  {
    "RetailAccounts": "ROUSES MARKET #29",
    "Address": "400 N CARROLLTON AVE",
    "City": "NEW ORLEANS",
    "State": "LA",
    "Zip Codes": "70119",
    "coordinates": [
      -90.096652,
      29.976445
    ]
  },
  {
    "RetailAccounts": "WHOLE FOODS MARKET #10143",
    "Address": "5600 MAGAZINE ST",
    "City": "NEW ORLEANS",
    "State": "LA",
    "Zip Codes": "70115",
    "coordinates": [
      -90.117622,
      29.920874
    ]
  },
  {
    "RetailAccounts": "TRADER JOES #755",
    "Address": "2949 VETERANS MEMORIAL BLVD",
    "City": "METAIRIE",
    "State": "LA",
    "Zip Codes": "70002",
    "coordinates": [
      -90.151785,
      30.004535
    ]
  },
  {
    "RetailAccounts": "Albertson s 0218",
    "Address": "105 Southfield Road",
    "City": "Shreveport",
    "State": "LA",
    "Zip Codes": "71105",
    "coordinates": [
      -93.709443,
      32.455309
    ]
  },
  {
    "RetailAccounts": "ROUSES MARKET #46",
    "Address": "701 BARONNE ST",
    "City": "NEW ORLEANS",
    "State": "LA",
    "Zip Codes": "70113",
    "coordinates": [
      -90.074152,
      29.947781
    ]
  },
  {
    "RetailAccounts": "TOTAL WINE SPIRITS BEER & MORE #250",
    "Address": "3780 VETERANS MEMORIAL BLVD",
    "City": "METAIRIE",
    "State": "LA",
    "Zip Codes": "70002",
    "coordinates": [
      -90.167651,
      30.003019
    ]
  },
  {
    "RetailAccounts": "Brookshire s 78",
    "Address": "510 East Kings Highway",
    "City": "Shreveport",
    "State": "LA",
    "Zip Codes": "71104",
    "coordinates": [
      -93.724182,
      32.480937
    ]
  },
  {
    "RetailAccounts": "TOTAL WINE SPIRITS BEER & MORE #250",
    "Address": "7074 SIEGEN LN",
    "City": "BATON ROUGE",
    "State": "LA",
    "Zip Codes": "70809",
    "coordinates": [
      -91.066052,
      30.385418
    ]
  },
  {
    "RetailAccounts": "Sam s Club 4109",
    "Address": "2861 Beene Blvd",
    "City": "Bossier City",
    "State": "LA",
    "Zip Codes": "71111",
    "coordinates": [
      -93.70663,
      32.563732
    ]
  },
  {
    "RetailAccounts": "Brookshire s 107",
    "Address": "4918 Barksdale Blvd",
    "City": "Bossier City",
    "State": "LA",
    "Zip Codes": "71112",
    "coordinates": [
      -93.663027,
      32.458143
    ]
  },
  {
    "RetailAccounts": "BREAUX MART #7",
    "Address": "3233 MAGAZINE ST",
    "City": "NEW ORLEANS",
    "State": "LA",
    "Zip Codes": "70115",
    "coordinates": [
      -90.087769,
      29.924043
    ]
  },
  {
    "RetailAccounts": "Super S Liquor",
    "Address": "5620 North Market",
    "City": "Shreveport",
    "State": "LA",
    "Zip Codes": "71107",
    "coordinates": [
      -93.835042,
      32.598368
    ]
  },
  {
    "RetailAccounts": "ROUSES MARKET #26",
    "Address": "4500 TCHOUPITOULAS ST",
    "City": "NEW ORLEANS",
    "State": "LA",
    "Zip Codes": "70115",
    "coordinates": [
      -90.10301,
      29.916505
    ]
  },
  {
    "RetailAccounts": "Kroger 534",
    "Address": "1050 George Dement Blvd",
    "City": "Bossier City",
    "State": "LA",
    "Zip Codes": "71111",
    "coordinates": [
      -93.706603,
      32.550592
    ]
  },
  {
    "RetailAccounts": "Mikes Hometown Spirits 2",
    "Address": "214 Homer Road",
    "City": "Minden",
    "State": "LA",
    "Zip Codes": "71055",
    "coordinates": [
      -93.275946,
      32.62097
    ]
  },
  {
    "RetailAccounts": "CALANDRO S SUPERMARKET",
    "Address": "4142 GOVERNMENT ST",
    "City": "BATON ROUGE",
    "State": "LA",
    "Zip Codes": "70806",
    "coordinates": [
      -91.147379,
      30.443975
    ]
  },
  {
    "RetailAccounts": "Thrifty 14",
    "Address": "1806 Benton Road",
    "City": "Bossier City",
    "State": "LA",
    "Zip Codes": "71111",
    "coordinates": [
      -93.720132,
      32.536049
    ]
  },
  {
    "RetailAccounts": "SUPER 1 FOODS #617",
    "Address": "1500 N TRENTON",
    "City": "RUSTON",
    "State": "LA",
    "Zip Codes": "71270",
    "coordinates": [
      -92.638111,
      32.544766
    ]
  },
  {
    "RetailAccounts": "Thrifty 09",
    "Address": "3000 East Texas Street",
    "City": "Bossier City",
    "State": "LA",
    "Zip Codes": "71111",
    "coordinates": [
      -93.70133,
      32.52843
    ]
  },
  {
    "RetailAccounts": "Imperial Wines",
    "Address": "5450 Barksdale Blvd",
    "City": "Bossier City",
    "State": "LA",
    "Zip Codes": "71112",
    "coordinates": [
      -93.6526,
      32.44706
    ]
  },
  {
    "RetailAccounts": "THE SPOTTED CAT MUSIC CLUB",
    "Address": "623 FRENCHMEN STREET",
    "City": "NEW ORLEANS",
    "State": "LA",
    "Zip Codes": "70117",
    "coordinates": [
      -90.057717,
      29.964075
    ]
  },
  {
    "RetailAccounts": "COCHON",
    "Address": "930 TCHOUPITOULAS ST",
    "City": "NEW ORLEANS",
    "State": "LA",
    "Zip Codes": "70130",
    "coordinates": [
      -90.067229,
      29.942277
    ]
  },
  {
    "RetailAccounts": "CANSECOS ESPLANADE MARKET",
    "Address": "3135 ESPLANADE AVE",
    "City": "NEW ORLEANS",
    "State": "LA",
    "Zip Codes": "70119",
    "coordinates": [
      -90.084502,
      29.980619
    ]
  },
  {
    "RetailAccounts": "TOTAL WINE SPIRITS BEER & MORE #250",
    "Address": "1882 N CAUSEWAY BLVD STE 20",
    "City": "MANDEVILLE",
    "State": "LA",
    "Zip Codes": "70471",
    "coordinates": [
      -90.090925,
      30.392142
    ]
  },
  {
    "RetailAccounts": "M & A Shell",
    "Address": "1342 Capt Shreve Drive",
    "City": "Shreveport",
    "State": "LA",
    "Zip Codes": "71105",
    "coordinates": [
      -93.70421,
      32.480987
    ]
  },
  {
    "RetailAccounts": "The Cellar Fine Wine&Spir",
    "Address": "5212 Airline Drive",
    "City": "Bossier City",
    "State": "LA",
    "Zip Codes": "71111",
    "coordinates": [
      -93.7135,
      32.61113
    ]
  },
  {
    "RetailAccounts": "Tony s 2",
    "Address": "6241 Line Avenue",
    "City": "Shreveport",
    "State": "LA",
    "Zip Codes": "71106",
    "coordinates": [
      -93.74565,
      32.448315
    ]
  },
  {
    "RetailAccounts": "CANSECOS CARROLLTON MARKET",
    "Address": "1133 S CARROLLTON",
    "City": "NEW ORLEANS",
    "State": "LA",
    "Zip Codes": "70118",
    "coordinates": [
      -90.129591,
      29.946923
    ]
  },
  {
    "RetailAccounts": "Stonewall Beverage Compan",
    "Address": "12800 Mansfield Road",
    "City": "Keithville",
    "State": "LA",
    "Zip Codes": "71047",
    "coordinates": [
      -93.829523,
      32.308225
    ]
  },
  {
    "RetailAccounts": "Thrifty 10",
    "Address": "8686 Youree Drive",
    "City": "Shreveport",
    "State": "LA",
    "Zip Codes": "71115",
    "coordinates": [
      -93.707649,
      32.423308
    ]
  },
  {
    "RetailAccounts": "LEGACY KITCHEN (COMMON ST)",
    "Address": "817 COMMON ST STE B",
    "City": "NEW ORLEANS",
    "State": "LA",
    "Zip Codes": "70112",
    "coordinates": [
      -90.071354,
      29.953028
    ]
  },
  {
    "RetailAccounts": "Ki Mexico",
    "Address": "3839 Gilbert Drive",
    "City": "Shreveport",
    "State": "LA",
    "Zip Codes": "71104",
    "coordinates": [
      -93.736898,
      32.471222
    ]
  },
  {
    "RetailAccounts": "Saint Laurent Pizza",
    "Address": "6301 Line Avenue",
    "City": "Shreveport",
    "State": "LA",
    "Zip Codes": "71106",
    "coordinates": [
      -93.74565,
      32.448944
    ]
  },
  {
    "RetailAccounts": "Circle K 7751",
    "Address": "402 East Kings Highway",
    "City": "Shreveport",
    "State": "LA",
    "Zip Codes": "71104",
    "coordinates": [
      -93.725567,
      32.481481
    ]
  },
  {
    "RetailAccounts": "THE AVENUE PUB",
    "Address": "1732 ST CHARLES AVE",
    "City": "NEW ORLEANS",
    "State": "LA",
    "Zip Codes": "70130",
    "coordinates": [
      -90.076749,
      29.936935
    ]
  },
  {
    "RetailAccounts": "Live Casino",
    "Address": "711 Live Casino Boulevard",
    "City": "Bossier City",
    "State": "LA",
    "Zip Codes": "71111",
    "coordinates": [
      -93.726773,
      32.511892
    ]
  },
  {
    "RetailAccounts": "DEVINE WINE/KEG PACKAGE",
    "Address": "670 TARBUTTON ROAD",
    "City": "RUSTON",
    "State": "LA",
    "Zip Codes": "71270",
    "coordinates": [
      -92.678914,
      32.537093
    ]
  },
  {
    "RetailAccounts": "Thrifty 07",
    "Address": "3238 Barksdale Blvd",
    "City": "Bossier City",
    "State": "LA",
    "Zip Codes": "71112",
    "coordinates": [
      -93.68653,
      32.49106
    ]
  },
  {
    "RetailAccounts": "Albertson s Liquor 4218",
    "Address": "5804 East Kings Highway",
    "City": "Shreveport",
    "State": "LA",
    "Zip Codes": "71105",
    "coordinates": [
      -93.7083,
      32.45675
    ]
  },
  {
    "RetailAccounts": "Homer Travel Plaza",
    "Address": "3448 Highway 79",
    "City": "Homer",
    "State": "LA",
    "Zip Codes": "71040",
    "coordinates": [
      -93.07578,
      32.756731
    ]
  },
  {
    "RetailAccounts": "DORIGNACS FOOD CENTER LLC",
    "Address": "710 VETERANS MEMORIAL BLVD",
    "City": "METAIRIE",
    "State": "LA",
    "Zip Codes": "70005",
    "coordinates": [
      -90.1299,
      30.000667
    ]
  },
  {
    "RetailAccounts": "Walmart Nm 3752",
    "Address": "5700 Shed Road",
    "City": "Bossier City",
    "State": "LA",
    "Zip Codes": "71111",
    "coordinates": [
      -93.648201,
      32.559754
    ]
  },
  {
    "RetailAccounts": "Thrifty 15",
    "Address": "420 Bert Kouns Ind Loop",
    "City": "Shreveport",
    "State": "LA",
    "Zip Codes": "71106",
    "coordinates": [
      -93.765962,
      32.398884
    ]
  },
  {
    "RetailAccounts": "LAKEVIEW GROCERY",
    "Address": "801 HARRISON AVE",
    "City": "NEW ORLEANS",
    "State": "LA",
    "Zip Codes": "70124",
    "coordinates": [
      -90.105307,
      30.005078
    ]
  },
  {
    "RetailAccounts": "Marilynn s Place",
    "Address": "4041 Fern Avenue",
    "City": "Shreveport",
    "State": "LA",
    "Zip Codes": "71104",
    "coordinates": [
      -93.736022,
      32.469388
    ]
  },
  {
    "RetailAccounts": "Super 1 Foods 633",
    "Address": "745 Shreveport Barksdale",
    "City": "Shreveport",
    "State": "LA",
    "Zip Codes": "71105",
    "coordinates": [
      -93.714793,
      32.478301
    ]
  },
  {
    "RetailAccounts": "Brookshire s 17",
    "Address": "6280 Highway 3",
    "City": "Benton",
    "State": "LA",
    "Zip Codes": "71006",
    "coordinates": [
      -93.744714,
      32.678069
    ]
  },
  {
    "RetailAccounts": "Walmart Sc 0278",
    "Address": "1645 East Bert Kouns",
    "City": "Shreveport",
    "State": "LA",
    "Zip Codes": "71105",
    "coordinates": [
      -93.770763,
      32.399522
    ]
  },
  {
    "RetailAccounts": "The Cellar Fine Wine&Spir",
    "Address": "4326 Benton Road",
    "City": "Bossier City",
    "State": "LA",
    "Zip Codes": "71111",
    "coordinates": [
      -93.73079,
      32.58171
    ]
  },
  {
    "RetailAccounts": "COLONIAL WINES AND SPIRIT",
    "Address": "11200 WEST MARKHAM",
    "City": "LITTLE ROCK",
    "State": "AR",
    "Zip Codes": "72211",
    "coordinates": [
      -92.398918,
      34.754482
    ]
  },
  {
    "RetailAccounts": "MARTIN WINE CELLAR (NO-BARONNE)",
    "Address": "3827 BARONNE ST",
    "City": "NEW ORLEANS",
    "State": "LA",
    "Zip Codes": "70115",
    "coordinates": [
      -90.096644,
      29.929136
    ]
  },
  {
    "RetailAccounts": "Willow Chute Grocery",
    "Address": "4721 Palmetto Road",
    "City": "Benton",
    "State": "LA",
    "Zip Codes": "71006",
    "coordinates": [
      -93.71308,
      32.63748
    ]
  },
  {
    "RetailAccounts": "Circle K 8197",
    "Address": "5845 Line Avenue",
    "City": "Shreveport",
    "State": "LA",
    "Zip Codes": "71106",
    "coordinates": [
      -93.74553,
      32.455031
    ]
  },
  {
    "RetailAccounts": "P & S Pantry",
    "Address": "1907 Southern Loop",
    "City": "Shreveport",
    "State": "LA",
    "Zip Codes": "71106",
    "coordinates": [
      -93.71437,
      32.35453
    ]
  },
  {
    "RetailAccounts": "Thrifty 01",
    "Address": "1288 North Market Street",
    "City": "Shreveport",
    "State": "LA",
    "Zip Codes": "71107",
    "coordinates": [
      -93.76502,
      32.53243
    ]
  },
  {
    "RetailAccounts": "ROBERT FRESH MARKET #124",
    "Address": "8115 S CLAIBORNE AVE",
    "City": "NEW ORLEANS",
    "State": "LA",
    "Zip Codes": "70118",
    "coordinates": [
      -90.120626,
      29.957079
    ]
  },
  {
    "RetailAccounts": "Southern Hills In & Out",
    "Address": "880 Flournoy Lucas Road",
    "City": "Shreveport",
    "State": "LA",
    "Zip Codes": "71118",
    "coordinates": [
      -93.779649,
      32.39136
    ]
  },
  {
    "RetailAccounts": "WHOLE FOODS MARKET (MANDEVILLE)",
    "Address": "3450 HWY 190 STE 8",
    "City": "MANDEVILLE",
    "State": "LA",
    "Zip Codes": "70471",
    "coordinates": [
      -90.085113,
      30.390272
    ]
  },
  {
    "RetailAccounts": "Thrifty 05",
    "Address": "3101 West Bert Kouns",
    "City": "Shreveport",
    "State": "LA",
    "Zip Codes": "71118",
    "coordinates": [
      -93.789578,
      32.402034
    ]
  },
  {
    "RetailAccounts": "WINN DIXIE #1430",
    "Address": "5400 TCHOUPITOULAS ST",
    "City": "NEW ORLEANS",
    "State": "LA",
    "Zip Codes": "70115",
    "coordinates": [
      -90.116741,
      29.916041
    ]
  },
  {
    "RetailAccounts": "COQUETTE",
    "Address": "2800 MAGAZINE ST",
    "City": "NEW ORLEANS",
    "State": "LA",
    "Zip Codes": "70115",
    "coordinates": [
      -90.082485,
      29.92598
    ]
  },
  {
    "RetailAccounts": "DOWNTOWN RUSTON BEERCRAWL",
    "Address": "DOWNTOWN RUSTON",
    "City": "RUSTON",
    "State": "LA",
    "Zip Codes": "71270",
    "coordinates": [
      -92.639285,
      32.529026
    ]
  },
  {
    "RetailAccounts": "Vineria Wine And Spirits",
    "Address": "784 E Flournoy Lucas #A",
    "City": "Shreveport",
    "State": "LA",
    "Zip Codes": "71115",
    "coordinates": [
      -93.69491,
      32.40144
    ]
  },
  {
    "RetailAccounts": "Pull Up 3",
    "Address": "1150 Highway 80",
    "City": "Haughton",
    "State": "LA",
    "Zip Codes": "71037",
    "coordinates": [
      -93.611714,
      32.55504
    ]
  },
  {
    "RetailAccounts": "ROBERT FRESH MARKET #131",
    "Address": "135 ROBERT E LEE BOULEVARD",
    "City": "NEW ORLEANS",
    "State": "LA",
    "Zip Codes": "70124",
    "coordinates": [
      -90.11532,
      30.020154
    ]
  },
  {
    "RetailAccounts": "GUESS WHO",
    "Address": "3609 SE GUESS WHO DR",
    "City": "BENTONVILLE",
    "State": "AR",
    "Zip Codes": "72712",
    "coordinates": [
      -94.207277,
      36.333929
    ]
  },
  {
    "RetailAccounts": "COUNTRY CORNER (BR-PERKINS)",
    "Address": "1923 PERKINS RD",
    "City": "BATON ROUGE",
    "State": "LA",
    "Zip Codes": "70808",
    "coordinates": [
      -91.16157,
      30.43172
    ]
  },
  {
    "RetailAccounts": "COVINGTON SUPERMARKET (ACQUISTAPACE",
    "Address": "125 E 21ST ST",
    "City": "COVINGTON",
    "State": "LA",
    "Zip Codes": "70433",
    "coordinates": [
      -90.100184,
      30.474666
    ]
  },
  {
    "RetailAccounts": "Bear s",
    "Address": "1401 Fairfield Avenue",
    "City": "Shreveport",
    "State": "LA",
    "Zip Codes": "71101",
    "coordinates": [
      -93.751998,
      32.498861
    ]
  },
  {
    "RetailAccounts": "BLACK PENNY",
    "Address": "700 N RAMPART ST",
    "City": "NEW ORLEANS",
    "State": "LA",
    "Zip Codes": "70116",
    "coordinates": [
      -90.068216,
      29.96045
    ]
  },
  {
    "RetailAccounts": "BROOKSHIRES #34",
    "Address": "1801  18TH",
    "City": "MONROE",
    "State": "LA",
    "Zip Codes": "71201",
    "coordinates": [
      -92.102516,
      32.511235
    ]
  },
  {
    "RetailAccounts": "WALMART SUPERCENTER #0023",
    "Address": "1201 N SERVICE ROAD",
    "City": "RUSTON",
    "State": "LA",
    "Zip Codes": "71270",
    "coordinates": [
      -92.624043,
      32.543518
    ]
  },
  {
    "RetailAccounts": "Blind Tiger",
    "Address": "120 Texas Street",
    "City": "Shreveport",
    "State": "LA",
    "Zip Codes": "71101",
    "coordinates": [
      -93.746826,
      32.515278
    ]
  },
  {
    "RetailAccounts": "SHERATON NEW ORLEANS HOTEL",
    "Address": "500 CANAL STREET",
    "City": "NEW ORLEANS",
    "State": "LA",
    "Zip Codes": "70130",
    "coordinates": [
      -90.067914,
      29.951883
    ]
  },
  {
    "RetailAccounts": "Maggio s Package Liquor",
    "Address": "230 South Drive",
    "City": "Natchitoches",
    "State": "LA",
    "Zip Codes": "71457",
    "coordinates": [
      -93.082645,
      31.745665
    ]
  },
  {
    "RetailAccounts": "ELIO S WINE WAREHOUSE",
    "Address": "6205 SOUTH MIRO ST",
    "City": "NEW ORLEANS",
    "State": "LA",
    "Zip Codes": "70125",
    "coordinates": [
      -90.112737,
      29.946686
    ]
  },
  {
    "RetailAccounts": "TRADER JOES #754",
    "Address": "3535 PERKINS RD STE 315",
    "City": "BATON ROUGE",
    "State": "LA",
    "Zip Codes": "70808",
    "coordinates": [
      -91.153357,
      30.422683
    ]
  },
  {
    "RetailAccounts": "ROUSES MARKET #30",
    "Address": "701 ROYAL ST",
    "City": "NEW ORLEANS",
    "State": "LA",
    "Zip Codes": "70116",
    "coordinates": [
      -90.06476,
      29.958144
    ]
  },
  {
    "RetailAccounts": "HARLEY S CUT-RATE #19",
    "Address": "1302 LOOP 281 WEST",
    "City": "LONGVIEW",
    "State": "TX",
    "Zip Codes": "75604",
    "coordinates": [
      -94.771544,
      32.531628
    ]
  },
  {
    "RetailAccounts": "ROUSES MARKET #33",
    "Address": "3711 POWERS BLVD",
    "City": "METAIRIE",
    "State": "LA",
    "Zip Codes": "70003",
    "coordinates": [
      -90.220962,
      30.011582
    ]
  },
  {
    "RetailAccounts": "Lakeshore Liquor #2",
    "Address": "327 Kings Hwy",
    "City": "Shreveport",
    "State": "LA",
    "Zip Codes": "71104",
    "coordinates": [
      -93.737068,
      32.481587
    ]
  },
  {
    "RetailAccounts": "Raceway 6935",
    "Address": "3645 Benton Road",
    "City": "Bossier City",
    "State": "LA",
    "Zip Codes": "71111",
    "coordinates": [
      -93.729747,
      32.566968
    ]
  },
  {
    "RetailAccounts": "Walmart Sc 0448",
    "Address": "6235 Westport Avenue",
    "City": "Shreveport",
    "State": "LA",
    "Zip Codes": "71129",
    "coordinates": [
      -93.867797,
      32.446434
    ]
  },
  {
    "RetailAccounts": "Circle K 3780",
    "Address": "809 Olive Street",
    "City": "Shreveport",
    "State": "LA",
    "Zip Codes": "71104",
    "coordinates": [
      -93.746445,
      32.492417
    ]
  },
  {
    "RetailAccounts": "WINN DIXIE #1472",
    "Address": "401 N CARROLLTON AVE",
    "City": "NEW ORLEANS",
    "State": "LA",
    "Zip Codes": "70119",
    "coordinates": [
      -90.099301,
      29.978227
    ]
  },
  {
    "RetailAccounts": "TOTAL WINE SPIRITS BEER & MORE #250",
    "Address": "4407 AMBASSADOR CAFFERY PKWY",
    "City": "LAFAYETTE",
    "State": "LA",
    "Zip Codes": "70508",
    "coordinates": [
      -92.047492,
      30.159013
    ]
  },
  {
    "RetailAccounts": "Walmart Nm 5204",
    "Address": "4000 Barksdale Blvd",
    "City": "Bossier City",
    "State": "LA",
    "Zip Codes": "71112",
    "coordinates": [
      -93.679292,
      32.479459
    ]
  },
  {
    "RetailAccounts": "Thrifty 02",
    "Address": "5505 East Texas Street",
    "City": "Bossier City",
    "State": "LA",
    "Zip Codes": "71111",
    "coordinates": [
      -93.65885,
      32.538235
    ]
  },
  {
    "RetailAccounts": "CANNATA S FAMILY MARKET-WEST",
    "Address": "6307 WEST PARK AVENUE",
    "City": "HOUMA",
    "State": "LA",
    "Zip Codes": "70364",
    "coordinates": [
      -90.748018,
      29.625138
    ]
  },
  {
    "RetailAccounts": "Beauxjax Craft House",
    "Address": "501 Barksdale Blvd",
    "City": "Bossier City",
    "State": "LA",
    "Zip Codes": "71111",
    "coordinates": [
      -93.73411,
      32.51595
    ]
  },
  {
    "RetailAccounts": "HOKUS POKUS LIQUORS (LAKE CHARLES)",
    "Address": "1915 COUNTRY CLUB RD",
    "City": "LAKE CHARLES",
    "State": "LA",
    "Zip Codes": "70605",
    "coordinates": [
      -93.251534,
      30.168292
    ]
  },
  {
    "RetailAccounts": "Brookshire s 37",
    "Address": "9250 Mansfield Road",
    "City": "Shreveport",
    "State": "LA",
    "Zip Codes": "71118",
    "coordinates": [
      -93.806585,
      32.401568
    ]
  },
  {
    "RetailAccounts": "LIQUOR WORLD",
    "Address": "3330 N COLLEGE AVE",
    "City": "FAYETTEVILLE",
    "State": "AR",
    "Zip Codes": "72702",
    "coordinates": [
      -94.143363,
      36.111454
    ]
  },
  {
    "RetailAccounts": "ROUSES MARKET #58",
    "Address": "14630 VILLAGE MARKET ST",
    "City": "BATON ROUGE",
    "State": "LA",
    "Zip Codes": "70817",
    "coordinates": [
      -91.013358,
      30.36253
    ]
  },
  {
    "RetailAccounts": "ACQUISTAPACE MANDEVILLE",
    "Address": "631 N CAUSEWAY BLVD",
    "City": "MANDEVILLE",
    "State": "LA",
    "Zip Codes": "70448",
    "coordinates": [
      -90.090184,
      30.374305
    ]
  },
  {
    "RetailAccounts": "Brookshire s 24",
    "Address": "3000 North Market",
    "City": "Shreveport",
    "State": "LA",
    "Zip Codes": "71107",
    "coordinates": [
      -93.781252,
      32.559244
    ]
  },
  {
    "RetailAccounts": "Circle K 8195",
    "Address": "5704 Youree Drive",
    "City": "Shreveport",
    "State": "LA",
    "Zip Codes": "71105",
    "coordinates": [
      -93.722445,
      32.456235
    ]
  },
  {
    "RetailAccounts": "MATHERNE S MARKET AT 440 ON THIRD",
    "Address": "440 N THIRD ST STE 100",
    "City": "BATON ROUGE",
    "State": "LA",
    "Zip Codes": "70802",
    "coordinates": [
      -91.188395,
      30.452614
    ]
  },
  {
    "RetailAccounts": "ROUSES MARKET #35",
    "Address": "6600 FRANKLIN AVE",
    "City": "NEW ORLEANS",
    "State": "LA",
    "Zip Codes": "70122",
    "coordinates": [
      -90.054352,
      30.026464
    ]
  },
  {
    "RetailAccounts": "CALVINS BOCAGE SUPERMARKET",
    "Address": "7675 JEFFERSON HWY",
    "City": "BATON ROUGE",
    "State": "LA",
    "Zip Codes": "70809",
    "coordinates": [
      -91.107556,
      30.429773
    ]
  },
  {
    "RetailAccounts": "ROUSES MARKET #55",
    "Address": "10130 CROSSING WAY STE 300",
    "City": "DENHAM SPRINGS",
    "State": "LA",
    "Zip Codes": "70726",
    "coordinates": [
      -90.9206,
      30.467877
    ]
  },
  {
    "RetailAccounts": "WAGNERS",
    "Address": "3200 ST CLAUDE AVE",
    "City": "NEW ORLEANS",
    "State": "LA",
    "Zip Codes": "70117",
    "coordinates": [
      -90.042346,
      29.96701
    ]
  },
  {
    "RetailAccounts": "Target 1347",
    "Address": "7110 Youree Drive",
    "City": "Shreveport",
    "State": "LA",
    "Zip Codes": "71105",
    "coordinates": [
      -93.72014,
      32.439566
    ]
  },
  {
    "RetailAccounts": "BROOKSHIRES #56",
    "Address": "4070 STERLINGTON ROAD",
    "City": "MONROE",
    "State": "LA",
    "Zip Codes": "71203",
    "coordinates": [
      -92.073572,
      32.56742
    ]
  },
  {
    "RetailAccounts": "Crawdaddy s Kitchen",
    "Address": "9370 Mansfield Road",
    "City": "Shreveport",
    "State": "LA",
    "Zip Codes": "71118",
    "coordinates": [
      -93.809822,
      32.397141
    ]
  },
  {
    "RetailAccounts": "Walmart Sc 0376",
    "Address": "2536 Airline Drive",
    "City": "Bossier City",
    "State": "LA",
    "Zip Codes": "71111",
    "coordinates": [
      -93.706324,
      32.548268
    ]
  },
  {
    "RetailAccounts": "Super Save 8",
    "Address": "784 E Flournoy Lucas #8",
    "City": "Shreveport",
    "State": "LA",
    "Zip Codes": "71115",
    "coordinates": [
      -93.69491,
      32.40144
    ]
  },
  {
    "RetailAccounts": "Straycat",
    "Address": "222 Travis Street",
    "City": "Shreveport",
    "State": "LA",
    "Zip Codes": "71101",
    "coordinates": [
      -93.748347,
      32.515338
    ]
  },
  {
    "RetailAccounts": "Station 80",
    "Address": "2955 Hwy 80",
    "City": "Haughton",
    "State": "LA",
    "Zip Codes": "71037",
    "coordinates": [
      -93.59978,
      32.55628
    ]
  },
  {
    "RetailAccounts": "ROUSES MARKET #70",
    "Address": "636 ARLINGTON CREEK CENTER BLVD",
    "City": "BATON ROUGE",
    "State": "LA",
    "Zip Codes": "70820",
    "coordinates": [
      -91.16309,
      30.39001
    ]
  },
  {
    "RetailAccounts": "Super 1 Foods 604",
    "Address": "5696 Hwy 1 Bypass Ste 10",
    "City": "Natchitoches",
    "State": "LA",
    "Zip Codes": "71457",
    "coordinates": [
      -93.106947,
      31.75313
    ]
  },
  {
    "RetailAccounts": "ROUSES MARKET #69",
    "Address": "7580 BLUEBONNET BLVD",
    "City": "BATON ROUGE",
    "State": "LA",
    "Zip Codes": "70810",
    "coordinates": [
      -91.098522,
      30.381618
    ]
  },
  {
    "RetailAccounts": "ROUSES MARKET #45",
    "Address": "601 BERTRAND DR",
    "City": "LAFAYETTE",
    "State": "LA",
    "Zip Codes": "70506",
    "coordinates": [
      -92.047524,
      30.213277
    ]
  },
  {
    "RetailAccounts": "Sterling Spirits II",
    "Address": "798 Duckwater Landing",
    "City": "Bossier City",
    "State": "LA",
    "Zip Codes": "71111",
    "coordinates": [
      -93.671375,
      32.604203
    ]
  },
  {
    "RetailAccounts": "THE FRESH MARKET #144",
    "Address": "3338 ST CHARLES AVE",
    "City": "NEW ORLEANS",
    "State": "LA",
    "Zip Codes": "70115",
    "coordinates": [
      -90.09087,
      29.928066
    ]
  },
  {
    "RetailAccounts": "The Crabby Crawfish",
    "Address": "8680 Youree Drive",
    "City": "Shreveport",
    "State": "LA",
    "Zip Codes": "71115",
    "coordinates": [
      -93.70777,
      32.42361
    ]
  },
  {
    "RetailAccounts": "Bodacious Bar & Q",
    "Address": "8410 Line Avenue",
    "City": "Shreveport",
    "State": "LA",
    "Zip Codes": "71106",
    "coordinates": [
      -93.741803,
      32.426333
    ]
  },
  {
    "RetailAccounts": "Herby K Restaurant",
    "Address": "1833 Pierre Avenue",
    "City": "Shreveport",
    "State": "LA",
    "Zip Codes": "71103",
    "coordinates": [
      -93.76301,
      32.49403
    ]
  },
  {
    "RetailAccounts": "Thrifty 12",
    "Address": "6709 Pines Road",
    "City": "Shreveport",
    "State": "LA",
    "Zip Codes": "71129",
    "coordinates": [
      -93.862728,
      32.44675
    ]
  },
  {
    "RetailAccounts": "Walmart Sc 0087",
    "Address": "1379 Homer Road",
    "City": "Minden",
    "State": "LA",
    "Zip Codes": "71055",
    "coordinates": [
      -93.251137,
      32.628073
    ]
  },
  {
    "RetailAccounts": "CANSECOS ELYSIAN FIELDS MARKET",
    "Address": "2221 FILMORE AVE",
    "City": "NEW ORLEANS",
    "State": "LA",
    "Zip Codes": "70122",
    "coordinates": [
      -90.059397,
      30.012908
    ]
  },
  {
    "RetailAccounts": "CANSECOS SUPERMARKET",
    "Address": "1519 B METAIRIE RD",
    "City": "METAIRIE",
    "State": "LA",
    "Zip Codes": "70005",
    "coordinates": [
      -90.144464,
      29.98564
    ]
  },
  {
    "RetailAccounts": "NOW SAVE #7",
    "Address": "1800 FORSYTHE AVE",
    "City": "MONROE",
    "State": "LA",
    "Zip Codes": "71201",
    "coordinates": [
      -92.116707,
      32.528499
    ]
  },
  {
    "RetailAccounts": "Margaritaville Casino Res",
    "Address": "777 Margaritaville Way",
    "City": "Bossier City",
    "State": "LA",
    "Zip Codes": "71111",
    "coordinates": [
      -93.743215,
      32.521202
    ]
  },
  {
    "RetailAccounts": "CRUMP S FOOD STORE #3",
    "Address": "704 W HOUSTON STREET",
    "City": "LINDEN",
    "State": "TX",
    "Zip Codes": "75563",
    "coordinates": [
      -94.37185,
      33.01221
    ]
  },
  {
    "RetailAccounts": "FRANKIE & JOHNNYS",
    "Address": "321 ARABELLA ST",
    "City": "NEW ORLEANS",
    "State": "LA",
    "Zip Codes": "70115",
    "coordinates": [
      -90.118951,
      29.917006
    ]
  },
  {
    "RetailAccounts": "CHAMPAGNES MARKET",
    "Address": "454 HEYMANN BLVD",
    "City": "LAFAYETTE",
    "State": "LA",
    "Zip Codes": "70503",
    "coordinates": [
      -92.016824,
      30.203565
    ]
  },
  {
    "RetailAccounts": "WHOLE FOODS MARKET (BR)",
    "Address": "7529 CORPORATE BLVD",
    "City": "BATON ROUGE",
    "State": "LA",
    "Zip Codes": "70809",
    "coordinates": [
      -91.111189,
      30.432125
    ]
  },
  {
    "RetailAccounts": "WHOLE FOODS MARKET (LAFAYETTE)",
    "Address": "4247 AMBASSADOR CAFFERY PKWY",
    "City": "LAFAYETTE",
    "State": "LA",
    "Zip Codes": "70508",
    "coordinates": [
      -92.051843,
      30.161044
    ]
  },
  {
    "RetailAccounts": "Hilton Shreveport",
    "Address": "104 Market Street",
    "City": "Shreveport",
    "State": "LA",
    "Zip Codes": "71101",
    "coordinates": [
      -93.751271,
      32.517182
    ]
  },
  {
    "RetailAccounts": "BROOKSHIRE S  #15",
    "Address": "1477 N BEULAH STREET",
    "City": "HAWKINS",
    "State": "TX",
    "Zip Codes": "75765",
    "coordinates": [
      -95.20865,
      32.60558
    ]
  },
  {
    "RetailAccounts": "Franks Pizza Napoletana",
    "Address": "6950 Fern Avenue",
    "City": "Shreveport",
    "State": "LA",
    "Zip Codes": "71105",
    "coordinates": [
      -93.730199,
      32.445095
    ]
  },
  {
    "RetailAccounts": "Corks & Cuts",
    "Address": "1939 Southern Loop Ste M",
    "City": "Shreveport",
    "State": "LA",
    "Zip Codes": "71106",
    "coordinates": [
      -93.71866,
      32.354991
    ]
  },
  {
    "RetailAccounts": "HOKUS POKUS LIQUORS (PRAIRIEVILLE)",
    "Address": "17524 AIRLINE HWY",
    "City": "PRAIRIEVILLE",
    "State": "LA",
    "Zip Codes": "70769",
    "coordinates": [
      -90.98173,
      30.32908
    ]
  },
  {
    "RetailAccounts": "GOOD SPIRITS #4112",
    "Address": "3603 MCCANN RD",
    "City": "LONGVIEW",
    "State": "TX",
    "Zip Codes": "75605",
    "coordinates": [
      -94.755164,
      32.543072
    ]
  },
  {
    "RetailAccounts": "BOURBON HOUSE",
    "Address": "144 BOURBON ST",
    "City": "NEW ORLEANS",
    "State": "LA",
    "Zip Codes": "70130",
    "coordinates": [
      -90.069189,
      29.954541
    ]
  },
  {
    "RetailAccounts": "CIRCLE Y CUT RATE LIQUOR",
    "Address": "310 E END BLVD N",
    "City": "MARSHALL",
    "State": "TX",
    "Zip Codes": "75670",
    "coordinates": [
      -94.349553,
      32.547801
    ]
  },
  {
    "RetailAccounts": "Gibbons Grill",
    "Address": "1714 East 70th Street",
    "City": "Shreveport",
    "State": "LA",
    "Zip Codes": "71105",
    "coordinates": [
      -93.716542,
      32.443902
    ]
  },
  {
    "RetailAccounts": "Rotolos C&C Shreveport",
    "Address": "1409 East 70th St STE 129",
    "City": "Shreveport",
    "State": "LA",
    "Zip Codes": "71105",
    "coordinates": [
      -93.728159,
      32.442538
    ]
  },
  {
    "RetailAccounts": "ALBERTSONS #3750",
    "Address": "4857 GOVERNMENT ST",
    "City": "BATON ROUGE",
    "State": "LA",
    "Zip Codes": "70806",
    "coordinates": [
      -91.140295,
      30.445084
    ]
  },
  {
    "RetailAccounts": "RAINBOW GROCERY",
    "Address": "4837 MAGAZINE STREET",
    "City": "NEW ORLEANS",
    "State": "LA",
    "Zip Codes": "70115",
    "coordinates": [
      -90.10707,
      29.92059
    ]
  },
  {
    "RetailAccounts": "Walmart Sc 3868 Liquor",
    "Address": "1125 Shreveport Barksdale",
    "City": "Shreveport",
    "State": "LA",
    "Zip Codes": "71105",
    "coordinates": [
      -93.705344,
      32.48368
    ]
  },
  {
    "RetailAccounts": "ROUSES MARKET #28",
    "Address": "717 CLEARVIEW PKWY",
    "City": "METAIRIE",
    "State": "LA",
    "Zip Codes": "70001",
    "coordinates": [
      -90.178179,
      29.981729
    ]
  },
  {
    "RetailAccounts": "Circle K 5985",
    "Address": "4151 Airline Drive",
    "City": "Bossier City",
    "State": "LA",
    "Zip Codes": "71111",
    "coordinates": [
      -93.714683,
      32.575252
    ]
  },
  {
    "RetailAccounts": "Walmart Sc 0170",
    "Address": "925 Keyser Avenue",
    "City": "Natchitoches",
    "State": "LA",
    "Zip Codes": "71457",
    "coordinates": [
      -93.066686,
      31.750245
    ]
  },
  {
    "RetailAccounts": "ALEXANDERS HARVEST MARKET",
    "Address": "12513 HWY 73",
    "City": "GEISMAR",
    "State": "LA",
    "Zip Codes": "70734",
    "coordinates": [
      -90.990267,
      30.253982
    ]
  },
  {
    "RetailAccounts": "OSTERIA LUPO",
    "Address": "4609 MAGAZINE ST",
    "City": "NEW ORLEANS",
    "State": "LA",
    "Zip Codes": "70115",
    "coordinates": [
      -90.104234,
      29.920775
    ]
  },
  {
    "RetailAccounts": "NOW SAVE #22",
    "Address": "2113 FARMERVILLE HWY",
    "City": "RUSTON",
    "State": "LA",
    "Zip Codes": "71270",
    "coordinates": [
      -92.610066,
      32.550837
    ]
  },
  {
    "RetailAccounts": "ROTOLOS CRAFT & CRUST",
    "Address": "1314 MAXWELL RD",
    "City": "RUSTON",
    "State": "LA",
    "Zip Codes": "71270",
    "coordinates": [
      -92.63271,
      32.541832
    ]
  },
  {
    "RetailAccounts": "WINN DIXIE #1329",
    "Address": "211 VETERANS MEMORIAL BOULEVARD",
    "City": "METAIRIE",
    "State": "LA",
    "Zip Codes": "70005",
    "coordinates": [
      -90.135481,
      30.001739
    ]
  },
  {
    "RetailAccounts": "CREOLE HOUSE RESTAURANT",
    "Address": "509 CANAL ST",
    "City": "NEW ORLEANS",
    "State": "LA",
    "Zip Codes": "70130",
    "coordinates": [
      -90.067189,
      29.952257
    ]
  },
  {
    "RetailAccounts": "Silver Star North",
    "Address": "5212 Airline Drive",
    "City": "Bossier City",
    "State": "LA",
    "Zip Codes": "71111",
    "coordinates": [
      -93.7135,
      32.61113
    ]
  },
  {
    "RetailAccounts": "OAK POINT MARKET ST GEORGE",
    "Address": "12732 PERKINS RD",
    "City": "BATON ROUGE",
    "State": "LA",
    "Zip Codes": "70810",
    "coordinates": [
      -91.076012,
      30.367064
    ]
  },
  {
    "RetailAccounts": "PIGEON & WHALE",
    "Address": "4525 FRERET ST STE 107",
    "City": "NEW ORLEANS",
    "State": "LA",
    "Zip Codes": "70115",
    "coordinates": [
      -90.104863,
      29.935293
    ]
  },
  {
    "RetailAccounts": "ROUSES MARKET #22",
    "Address": "1644 GAUSE BLVD",
    "City": "SLIDELL",
    "State": "LA",
    "Zip Codes": "70458",
    "coordinates": [
      -89.7529,
      30.286119
    ]
  },
  {
    "RetailAccounts": "PARASOLS",
    "Address": "2533 CONSTANCE ST",
    "City": "NEW ORLEANS",
    "State": "LA",
    "Zip Codes": "70130",
    "coordinates": [
      -90.080173,
      29.926449
    ]
  },
  {
    "RetailAccounts": "WINN DIXIE #1443",
    "Address": "70431 HWY 21",
    "City": "COVINGTON",
    "State": "LA",
    "Zip Codes": "70433",
    "coordinates": [
      -90.137489,
      30.453787
    ]
  },
  {
    "RetailAccounts": "ZARAS LIL GIANT SUPERMARKET",
    "Address": "4838 PRYTANIA",
    "City": "NEW ORLEANS",
    "State": "LA",
    "Zip Codes": "70115",
    "coordinates": [
      -90.107413,
      29.924354
    ]
  },
  {
    "RetailAccounts": "The Library On Fern",
    "Address": "8660 Fern Avenue",
    "City": "Shreveport",
    "State": "LA",
    "Zip Codes": "71105",
    "coordinates": [
      -93.72103,
      32.423494
    ]
  },
  {
    "RetailAccounts": "Fatty Arbuckle s Pub",
    "Address": "450 Clyde Fant Pkwy Ste E",
    "City": "Shreveport",
    "State": "LA",
    "Zip Codes": "71101",
    "coordinates": [
      -93.745351,
      32.516443
    ]
  },
  {
    "RetailAccounts": "Thrifty 11",
    "Address": "1450 Airline Drive",
    "City": "Bossier City",
    "State": "LA",
    "Zip Codes": "71112",
    "coordinates": [
      -93.69352,
      32.513465
    ]
  },
  {
    "RetailAccounts": "TOUPS MEATERY",
    "Address": "845 N CARROLLTON AVE",
    "City": "NEW ORLEANS",
    "State": "LA",
    "Zip Codes": "70119",
    "coordinates": [
      -90.094562,
      29.98058
    ]
  },
  {
    "RetailAccounts": "Walmart Sc 6932",
    "Address": "4701 Northport Blvd",
    "City": "Shreveport",
    "State": "LA",
    "Zip Codes": "71107",
    "coordinates": [
      -93.838319,
      32.596094
    ]
  },
  {
    "RetailAccounts": "HOKUS POKUS LIQUORS #3",
    "Address": "4140 JACKSON ST EXT",
    "City": "ALEXANDRIA",
    "State": "LA",
    "Zip Codes": "71301",
    "coordinates": [
      -92.480258,
      31.279738
    ]
  },
  {
    "RetailAccounts": "MAISON DE LA MUSIQUE",
    "Address": "508 FRENCHMEN ST",
    "City": "NEW ORLEANS",
    "State": "LA",
    "Zip Codes": "70116",
    "coordinates": [
      -90.057945,
      29.962805
    ]
  },
  {
    "RetailAccounts": "BIN Q LIQUOR STORE",
    "Address": "3911 PERKINS RD",
    "City": "BATON ROUGE",
    "State": "LA",
    "Zip Codes": "70808",
    "coordinates": [
      -91.149052,
      30.41965
    ]
  },
  {
    "RetailAccounts": "Walk Ons Bistreaux Shreve",
    "Address": "7031 Youree Drive",
    "City": "Shreveport",
    "State": "LA",
    "Zip Codes": "71105",
    "coordinates": [
      -93.716868,
      32.441969
    ]
  },
  {
    "RetailAccounts": "ROUSES MARKET #27",
    "Address": "2701 AIRLINE DR",
    "City": "METAIRIE",
    "State": "LA",
    "Zip Codes": "70001",
    "coordinates": [
      -90.150439,
      29.975065
    ]
  },
  {
    "RetailAccounts": "WAL-MART #398",
    "Address": "515 LOOP 281 EAST",
    "City": "LONGVIEW",
    "State": "TX",
    "Zip Codes": "75605",
    "coordinates": [
      -94.727504,
      32.542098
    ]
  },
  {
    "RetailAccounts": "BIG PAPA S LIQ BEER & WIN",
    "Address": "880 EAST LOOP 281 SUITE A",
    "City": "LONGVIEW",
    "State": "TX",
    "Zip Codes": "75605",
    "coordinates": [
      -94.70405,
      32.52784
    ]
  },
  {
    "RetailAccounts": "WHOLE FOODS MARKET #10596",
    "Address": "3425 NORTH COLLEGE AVENUE",
    "City": "FAYETTEVILLE",
    "State": "AR",
    "Zip Codes": "72703",
    "coordinates": [
      -94.146359,
      36.113616
    ]
  },
  {
    "RetailAccounts": "FORSYTHE TRAVEL PLAZA",
    "Address": "2221 FORSYTHE AVE",
    "City": "MONROE",
    "State": "LA",
    "Zip Codes": "71201",
    "coordinates": [
      -92.105297,
      32.536904
    ]
  },
  {
    "RetailAccounts": "The Noble Savage",
    "Address": "417 Texas Street",
    "City": "Shreveport",
    "State": "LA",
    "Zip Codes": "71101",
    "coordinates": [
      -93.749042,
      32.512946
    ]
  },
  {
    "RetailAccounts": "5 Star Grocery Store",
    "Address": "3489 Swan Lake Road",
    "City": "Bossier City",
    "State": "LA",
    "Zip Codes": "71111",
    "coordinates": [
      -93.671914,
      32.603627
    ]
  },
  {
    "RetailAccounts": "BREAUX MART #2",
    "Address": "7902 HWY 23",
    "City": "BELLE CHASSE",
    "State": "LA",
    "Zip Codes": "70037",
    "coordinates": [
      -89.995791,
      29.86169
    ]
  },
  {
    "RetailAccounts": "BAYOU BEER GARDEN",
    "Address": "326 N JEFF DAVIS PKWY",
    "City": "NEW ORLEANS",
    "State": "LA",
    "Zip Codes": "70119",
    "coordinates": [
      -90.078202,
      29.975962
    ]
  },
  {
    "RetailAccounts": "SNEAKY PICKLE",
    "Address": "3200 BURGUNDY ST",
    "City": "NEW ORLEANS",
    "State": "LA",
    "Zip Codes": "70117",
    "coordinates": [
      -90.042967,
      29.9649
    ]
  },
  {
    "RetailAccounts": "Silver Dollar Liquor-Beer",
    "Address": "5010 Highway 71",
    "City": "Coushatta",
    "State": "LA",
    "Zip Codes": "71019",
    "coordinates": [
      -93.322991,
      32.016524
    ]
  },
  {
    "RetailAccounts": "KROGER  #623",
    "Address": "16105 B CHENAL PARKWAY",
    "City": "LITTLE ROCK",
    "State": "AR",
    "Zip Codes": "72211",
    "coordinates": [
      -92.431232,
      34.757908
    ]
  },
  {
    "RetailAccounts": "Southern Pantry C-Store",
    "Address": "8790 Youree Drive",
    "City": "Shreveport",
    "State": "LA",
    "Zip Codes": "71115",
    "coordinates": [
      -93.70586,
      32.4202
    ]
  },
  {
    "RetailAccounts": "PANTHER QUICK STOP",
    "Address": "4405 GILMER ROAD",
    "City": "LONGVIEW",
    "State": "TX",
    "Zip Codes": "75604",
    "coordinates": [
      -94.80481,
      32.5654
    ]
  },
  {
    "RetailAccounts": "S&Q Stop",
    "Address": "4005 Fern Avenue",
    "City": "Shreveport",
    "State": "LA",
    "Zip Codes": "71105",
    "coordinates": [
      -93.736858,
      32.47072
    ]
  },
  {
    "RetailAccounts": "COOTER BROWNS",
    "Address": "509 SOUTH CARROLLTON AVENUE",
    "City": "NEW ORLEANS",
    "State": "LA",
    "Zip Codes": "70118",
    "coordinates": [
      -90.134374,
      29.942481
    ]
  },
  {
    "RetailAccounts": "Zuzul Coastal Cuisine",
    "Address": "1370 E 70th St Ste 1100",
    "City": "Shreveport",
    "State": "LA",
    "Zip Codes": "71105",
    "coordinates": [
      -93.728188,
      32.444444
    ]
  },
  {
    "RetailAccounts": "Fat Calf Boucherie",
    "Address": "3030 Creswell Avenue",
    "City": "Shreveport",
    "State": "LA",
    "Zip Codes": "71104",
    "coordinates": [
      -93.742019,
      32.481898
    ]
  },
  {
    "RetailAccounts": "LEGACY WINE & SPIRITS",
    "Address": "16900 CHENAL PARKWAY",
    "City": "LITTLE ROCK",
    "State": "AR",
    "Zip Codes": "72223",
    "coordinates": [
      -92.452159,
      34.759365
    ]
  },
  {
    "RetailAccounts": "FAUBOURG PONTCHARTRAIN",
    "Address": "2031 ST CHARLES AVE",
    "City": "NEW ORLEANS",
    "State": "LA",
    "Zip Codes": "70130",
    "coordinates": [
      -90.079623,
      29.935106
    ]
  },
  {
    "RetailAccounts": "ROUSES MARKET #15",
    "Address": "1410 ST CHARLES ST",
    "City": "HOUMA",
    "State": "LA",
    "Zip Codes": "70360",
    "coordinates": [
      -90.747471,
      29.584678
    ]
  },
  {
    "RetailAccounts": "Strange Brew",
    "Address": "235 Wall Street",
    "City": "Shreveport",
    "State": "LA",
    "Zip Codes": "71101",
    "coordinates": [
      -93.73481,
      32.50056
    ]
  },
  {
    "RetailAccounts": "SOCIAL SOUTHERN TABLE AND BAR",
    "Address": "3901 JOHNSTON ST",
    "City": "LAFAYETTE",
    "State": "LA",
    "Zip Codes": "70503",
    "coordinates": [
      -92.055137,
      30.197982
    ]
  },
  {
    "RetailAccounts": "WHOLE FOODS MARKET (METAIRIE)",
    "Address": "3420 VETERANS MEMORIAL BLVD",
    "City": "METAIRIE",
    "State": "LA",
    "Zip Codes": "70002",
    "coordinates": [
      -90.158949,
      30.002031
    ]
  },
  {
    "RetailAccounts": "Spring Market 731",
    "Address": "5907 Mooringsport Road",
    "City": "Blanchard",
    "State": "LA",
    "Zip Codes": "71107",
    "coordinates": [
      -93.881673,
      32.57209
    ]
  },
  {
    "RetailAccounts": "SUPER DISCOUNT LIQUOR",
    "Address": "2550 WEST ALABAMA",
    "City": "RUSTON",
    "State": "LA",
    "Zip Codes": "71270",
    "coordinates": [
      -92.668406,
      32.533578
    ]
  },
  {
    "RetailAccounts": "WALMART 5244",
    "Address": "19301 CANTRELL",
    "City": "LITTLE ROCK",
    "State": "AR",
    "Zip Codes": "72223",
    "coordinates": [
      -92.485983,
      34.809468
    ]
  },
  {
    "RetailAccounts": "HARLEY S CUT-RATE #20",
    "Address": "1401 W MARSHAL AVE",
    "City": "LONGVIEW",
    "State": "TX",
    "Zip Codes": "75604",
    "coordinates": [
      -94.769066,
      32.504507
    ]
  },
  {
    "RetailAccounts": "Silver Star Smokehse & Sa",
    "Address": "1201 Dixie Overland Road",
    "City": "Bossier City",
    "State": "LA",
    "Zip Codes": "71111",
    "coordinates": [
      -93.63624,
      32.54836
    ]
  },
  {
    "RetailAccounts": "The Landing Restaurant",
    "Address": "530 Front Street STE A",
    "City": "Natchitoches",
    "State": "LA",
    "Zip Codes": "71457",
    "coordinates": [
      -93.086473,
      31.760066
    ]
  },
  {
    "RetailAccounts": "Corner Mart 34",
    "Address": "4910 Barksdale Blvd",
    "City": "Bossier City",
    "State": "LA",
    "Zip Codes": "71112",
    "coordinates": [
      -93.662271,
      32.459426
    ]
  },
  {
    "RetailAccounts": "Chianti",
    "Address": "6535 Line Avenue Ste 140",
    "City": "Shreveport",
    "State": "LA",
    "Zip Codes": "71106",
    "coordinates": [
      -93.745613,
      32.446264
    ]
  },
  {
    "RetailAccounts": "AJS FAST STOP",
    "Address": "1708 N MAIN ST",
    "City": "GLADEWATER",
    "State": "TX",
    "Zip Codes": "75647",
    "coordinates": [
      -94.932361,
      32.551367
    ]
  },
  {
    "RetailAccounts": "SUPER SAVE #3",
    "Address": "4509 CYPRESS ST  STE 2",
    "City": "WEST MONROE",
    "State": "LA",
    "Zip Codes": "71291",
    "coordinates": [
      -92.175001,
      32.513881
    ]
  },
  {
    "RetailAccounts": "Brookshire s 67",
    "Address": "3620 Pines Road",
    "City": "Shreveport",
    "State": "LA",
    "Zip Codes": "71109",
    "coordinates": [
      -93.865996,
      32.478776
    ]
  },
  {
    "RetailAccounts": "WHOLE FOODS MARKET #10551",
    "Address": "501 S. BOWMAN RD",
    "City": "LITTLE ROCK",
    "State": "AR",
    "Zip Codes": "72211",
    "coordinates": [
      -92.405754,
      34.750375
    ]
  },
  {
    "RetailAccounts": "SUPER 1 FOODS #635",
    "Address": "905 E PINECREST",
    "City": "MARSHALL",
    "State": "TX",
    "Zip Codes": "75670",
    "coordinates": [
      -94.358241,
      32.527854
    ]
  },
  {
    "RetailAccounts": "THE FRESH MARKET #74",
    "Address": "10555 PERKINS RD",
    "City": "BATON ROUGE",
    "State": "LA",
    "Zip Codes": "70810",
    "coordinates": [
      -91.093457,
      30.377746
    ]
  },
  {
    "RetailAccounts": "PUJO STREET CAFE",
    "Address": "901 RYAN ST",
    "City": "LAKE CHARLES",
    "State": "LA",
    "Zip Codes": "70601",
    "coordinates": [
      -93.217021,
      30.227634
    ]
  },
  {
    "RetailAccounts": "ALBERTSONS #2798",
    "Address": "2750 COUNTRY CLUB RD",
    "City": "LAKE CHARLES",
    "State": "LA",
    "Zip Codes": "70605",
    "coordinates": [
      -93.265393,
      30.170221
    ]
  },
  {
    "RetailAccounts": "ZEN KITCHEN",
    "Address": "117 S RUSK ST",
    "City": "KILGORE",
    "State": "TX",
    "Zip Codes": "75662",
    "coordinates": [
      -94.875669,
      32.385273
    ]
  },
  {
    "RetailAccounts": "WALMART NBHD MKT #3745",
    "Address": "1840 MCKEEN PL",
    "City": "MONROE",
    "State": "LA",
    "Zip Codes": "71201",
    "coordinates": [
      -92.114485,
      32.52632
    ]
  },
  {
    "RetailAccounts": "STATION 6",
    "Address": "105 METAIRIE HAMMOND HWY",
    "City": "METAIRIE",
    "State": "LA",
    "Zip Codes": "70005",
    "coordinates": [
      -90.1221,
      30.02044
    ]
  },
  {
    "RetailAccounts": "WALMART NEIGHBORHOOD MARKET #7241",
    "Address": "25820 HWY 16",
    "City": "DENHAM SPRINGS",
    "State": "LA",
    "Zip Codes": "70726",
    "coordinates": [
      -90.945245,
      30.443805
    ]
  },
  {
    "RetailAccounts": "THE COPPER MONKEY GRILL",
    "Address": "725 CONTI ST",
    "City": "NEW ORLEANS",
    "State": "LA",
    "Zip Codes": "70130",
    "coordinates": [
      -90.067314,
      29.956136
    ]
  },
  {
    "RetailAccounts": "BRQ RESTAURANT",
    "Address": "10423 JEFFERSON HWY",
    "City": "BATON ROUGE",
    "State": "LA",
    "Zip Codes": "70809",
    "coordinates": [
      -91.0668,
      30.40926
    ]
  },
  {
    "RetailAccounts": "ARTIGUES ABITA MARKET",
    "Address": "22069 HWY 59",
    "City": "ABITA SPRINGS",
    "State": "LA",
    "Zip Codes": "70420",
    "coordinates": [
      -90.038308,
      30.478759
    ]
  },
  {
    "RetailAccounts": "COCHON BUTCHER CALCASIEU",
    "Address": "930 TCHOUPITOULAS ST STE B",
    "City": "NEW ORLEANS",
    "State": "LA",
    "Zip Codes": "70130",
    "coordinates": [
      -90.067229,
      29.942277
    ]
  },
  {
    "RetailAccounts": "MID CITY BEER GARDEN",
    "Address": "3808 GOVERNMENT ST",
    "City": "BATON ROUGE",
    "State": "LA",
    "Zip Codes": "70806",
    "coordinates": [
      -91.150386,
      30.444041
    ]
  },
  {
    "RetailAccounts": "Robinson Film Center",
    "Address": "617 Texas Street",
    "City": "Shreveport",
    "State": "LA",
    "Zip Codes": "71101",
    "coordinates": [
      -93.750915,
      32.511528
    ]
  },
  {
    "RetailAccounts": "The Oyster Bar",
    "Address": "855 Pierremont Road #156",
    "City": "Shreveport",
    "State": "LA",
    "Zip Codes": "71106",
    "coordinates": [
      -93.747782,
      32.453774
    ]
  },
  {
    "RetailAccounts": "CARROLLTON STATION",
    "Address": "8140 WILLOW STREET",
    "City": "NEW ORLEANS",
    "State": "LA",
    "Zip Codes": "70118",
    "coordinates": [
      -90.12919,
      29.949285
    ]
  },
  {
    "RetailAccounts": "Sterling Spirits",
    "Address": "123 Highway 3227 STE C",
    "City": "Haughton",
    "State": "LA",
    "Zip Codes": "71037",
    "coordinates": [
      -93.512906,
      32.545292
    ]
  },
  {
    "RetailAccounts": "USA TRAVEL PLAZA 13",
    "Address": "1703 HWY 33",
    "City": "RUSTON",
    "State": "LA",
    "Zip Codes": "71270",
    "coordinates": [
      -92.616145,
      32.5418
    ]
  },
  {
    "RetailAccounts": "ARNAUDS RESTAURANT",
    "Address": "801 829 BIENVILLE STREET",
    "City": "NEW ORLEANS",
    "State": "LA",
    "Zip Codes": "70112",
    "coordinates": [
      -90.069154,
      29.955963
    ]
  },
  {
    "RetailAccounts": "WAL-MART #163",
    "Address": "4810 N STREET",
    "City": "NACOGDOCHES",
    "State": "TX",
    "Zip Codes": "75965",
    "coordinates": [
      -94.652353,
      31.650027
    ]
  },
  {
    "RetailAccounts": "Frozen Pirogue",
    "Address": "515 Barksdale Blvd",
    "City": "Bossier City",
    "State": "LA",
    "Zip Codes": "71111",
    "coordinates": [
      -93.73372,
      32.516012
    ]
  },
  {
    "RetailAccounts": "LIONS STOP 2",
    "Address": "946 OLE HWY 15",
    "City": "WEST MONROE",
    "State": "LA",
    "Zip Codes": "71291",
    "coordinates": [
      -92.2397,
      32.54454
    ]
  },
  {
    "RetailAccounts": "PRYTANIA LIQUOR STORE",
    "Address": "1300 ARABELLA STREET",
    "City": "NEW ORLEANS",
    "State": "LA",
    "Zip Codes": "70115",
    "coordinates": [
      -90.116908,
      29.926053
    ]
  },
  {
    "RetailAccounts": "Cost Plus World Market",
    "Address": "7071 Youree Drive",
    "City": "Shreveport",
    "State": "LA",
    "Zip Codes": "71101",
    "coordinates": [
      -93.715598,
      32.442298
    ]
  },
  {
    "RetailAccounts": "THE FRESH MARKET #201",
    "Address": "755 VETERANS MEMORIAL BLVD STE A",
    "City": "METAIRIE",
    "State": "LA",
    "Zip Codes": "70005",
    "coordinates": [
      -90.130371,
      30.003678
    ]
  },
  {
    "RetailAccounts": "Country Corner",
    "Address": "1198 Linton Road",
    "City": "Benton",
    "State": "LA",
    "Zip Codes": "71006",
    "coordinates": [
      -93.692109,
      32.654754
    ]
  },
  {
    "RetailAccounts": "WINN DIXIE #1404",
    "Address": "8601 JEFFERSON HWY",
    "City": "RIVER RIDGE",
    "State": "LA",
    "Zip Codes": "70123",
    "coordinates": [
      -90.212012,
      29.943214
    ]
  },
  {
    "RetailAccounts": "CITY PORK BRASSERIE & BAR",
    "Address": "7327 JEFFERSON HWY",
    "City": "BATON ROUGE",
    "State": "LA",
    "Zip Codes": "70806",
    "coordinates": [
      -91.11288,
      30.4342
    ]
  },
  {
    "RetailAccounts": "Super S Triangle",
    "Address": "10881 Highway 1",
    "City": "Mooringsport",
    "State": "LA",
    "Zip Codes": "71060",
    "coordinates": [
      -93.95566,
      32.71755
    ]
  },
  {
    "RetailAccounts": "WALMART 4108",
    "Address": "4870 ELM SPRINGS ROAD",
    "City": "SPRINGDALE",
    "State": "AR",
    "Zip Codes": "72762",
    "coordinates": [
      -94.183949,
      36.196132
    ]
  },
  {
    "RetailAccounts": "Tailwind Shv",
    "Address": "5103 Hollywood Avenue",
    "City": "Shreveport",
    "State": "LA",
    "Zip Codes": "71109",
    "coordinates": [
      -93.828906,
      32.454457
    ]
  },
  {
    "RetailAccounts": "PASCALS MANALE RESTAURANT",
    "Address": "1838 NAPOLEON AVE",
    "City": "NEW ORLEANS",
    "State": "LA",
    "Zip Codes": "70115",
    "coordinates": [
      -90.102629,
      29.929352
    ]
  },
  {
    "RetailAccounts": "MR EDS OYSTER BAR & FISH HOUSE (BIE",
    "Address": "512 BIENVILLE ST",
    "City": "NEW ORLEANS",
    "State": "LA",
    "Zip Codes": "70130",
    "coordinates": [
      -90.06602,
      29.95376
    ]
  },
  {
    "RetailAccounts": "LE MERIDIEN",
    "Address": "333 POYDRAS ST",
    "City": "NEW ORLEANS",
    "State": "LA",
    "Zip Codes": "70130",
    "coordinates": [
      -90.066296,
      29.948969
    ]
  },
  {
    "RetailAccounts": "ROUSES MARKET #62",
    "Address": "3446 DRUSILLA LANE",
    "City": "BATON ROUGE",
    "State": "LA",
    "Zip Codes": "70809",
    "coordinates": [
      -91.090117,
      30.41994
    ]
  },
  {
    "RetailAccounts": "Thrifty Catering 9",
    "Address": "620 Benton Road",
    "City": "Bossier City",
    "State": "LA",
    "Zip Codes": "71111",
    "coordinates": [
      -93.713252,
      32.52504
    ]
  },
  {
    "RetailAccounts": "SCOTTIES 2.0",
    "Address": "1188 E HAWKINS PARKWAY",
    "City": "LONGVIEW",
    "State": "TX",
    "Zip Codes": "75605",
    "coordinates": [
      -94.715232,
      32.545297
    ]
  },
  {
    "RetailAccounts": "SUPER 1 FOODS #643",
    "Address": "200 DESTINATION POINTE LN",
    "City": "SCOTT",
    "State": "LA",
    "Zip Codes": "70583",
    "coordinates": [
      -92.093812,
      30.233571
    ]
  },
  {
    "RetailAccounts": "SUNDOWN TAVERN",
    "Address": "111 E. PARK AVE.",
    "City": "RUSTON",
    "State": "LA",
    "Zip Codes": "71270",
    "coordinates": [
      -92.637473,
      32.529167
    ]
  },
  {
    "RetailAccounts": "OZARK NATURAL FOODS",
    "Address": "380 N COLLEGE AVE.  STE B",
    "City": "FAYETTEVILLE",
    "State": "AR",
    "Zip Codes": "72703",
    "coordinates": [
      -94.157222,
      36.067779
    ]
  },
  {
    "RetailAccounts": "KROGER  #642",
    "Address": "6929 JFK BLVD.",
    "City": "NORTH LITTLE RO",
    "State": "AR",
    "Zip Codes": "72116",
    "coordinates": [
      -90.100586,
      35.80743
    ]
  },
  {
    "RetailAccounts": "CAJUN MIKES",
    "Address": "116 BARRONE",
    "City": "NEW ORLEANS",
    "State": "LA",
    "Zip Codes": "70112",
    "coordinates": [
      -90.075842,
      29.9509
    ]
  },
  {
    "RetailAccounts": "Onos Hawaiian Artspace",
    "Address": "708 Texas Street",
    "City": "Shreveport",
    "State": "LA",
    "Zip Codes": "71101",
    "coordinates": [
      -93.752175,
      32.511519
    ]
  },
  {
    "RetailAccounts": "ELEMENT BY WESTIN BATON ROUGE SOUTH",
    "Address": "8649 SUMMA AVE",
    "City": "BATON ROUGE",
    "State": "LA",
    "Zip Codes": "70809",
    "coordinates": [
      -91.09577,
      30.397469
    ]
  },
  {
    "RetailAccounts": "King s Mini Mart & Vape",
    "Address": "105 East Kings Highway",
    "City": "Shreveport",
    "State": "LA",
    "Zip Codes": "71104",
    "coordinates": [
      -93.731322,
      32.481698
    ]
  },
  {
    "RetailAccounts": "CAPITAL CITY GRILL (BR-LAF ST)",
    "Address": "100 LAFAYETTE ST STE C",
    "City": "BATON ROUGE",
    "State": "LA",
    "Zip Codes": "70801",
    "coordinates": [
      -91.189065,
      30.447597
    ]
  },
  {
    "RetailAccounts": "THE EVERYTHING SHOPPE",
    "Address": "444 CANAL STREET",
    "City": "NEW ORLEANS",
    "State": "LA",
    "Zip Codes": "70130",
    "coordinates": [
      -90.06718,
      29.951569
    ]
  },
  {
    "RetailAccounts": "FADED ROSE",
    "Address": "1619 REBSAMEN PARK ROAD",
    "City": "LITTLE ROCK",
    "State": "AR",
    "Zip Codes": "72202",
    "coordinates": [
      -92.309721,
      34.765591
    ]
  },
  {
    "RetailAccounts": "SIDNEYS WINE CELLAR",
    "Address": "917 DECATUR STREET",
    "City": "NEW ORLEANS",
    "State": "LA",
    "Zip Codes": "70116",
    "coordinates": [
      -90.061151,
      29.958765
    ]
  },
  {
    "RetailAccounts": "ECONOMICAL SUPERMARKET",
    "Address": "5010 VETERANS MEMORIAL BOULEVARD",
    "City": "METAIRIE",
    "State": "LA",
    "Zip Codes": "70006",
    "coordinates": [
      -90.19605,
      30.00513
    ]
  },
  {
    "RetailAccounts": "WORLD MARKET",
    "Address": "8970 S BROADWAY AVE ST136",
    "City": "TYLER",
    "State": "TX",
    "Zip Codes": "75703",
    "coordinates": [
      -95.30649,
      32.248253
    ]
  },
  {
    "RetailAccounts": "ROUSES MARKET #21",
    "Address": "3461 E CAUSEWAY APPROACH",
    "City": "MANDEVILLE",
    "State": "LA",
    "Zip Codes": "70448",
    "coordinates": [
      -90.089321,
      30.375768
    ]
  },
  {
    "RetailAccounts": "YARD GOAT",
    "Address": "116 BERTRAND DR",
    "City": "LAFAYETTE",
    "State": "LA",
    "Zip Codes": "70506",
    "coordinates": [
      -92.041277,
      30.207145
    ]
  },
  {
    "RetailAccounts": "Arkansas",
    "Address": "280 15th St. NW",
    "City": "Springhill",
    "State": "LA",
    "Zip Codes": "71075",
    "coordinates": [
      -93.491443,
      33.018438
    ]
  },
  {
    "RetailAccounts": "Walmart Sc 0323",
    "Address": "7292 Highway 509",
    "City": "Mansfield",
    "State": "LA",
    "Zip Codes": "71052",
    "coordinates": [
      -93.68175,
      32.052932
    ]
  },
  {
    "RetailAccounts": "THE QUEEN BATON ROUGE (RESTAURANT)",
    "Address": "1717 N RIVER RD",
    "City": "BATON ROUGE",
    "State": "LA",
    "Zip Codes": "70802",
    "coordinates": [
      -91.19098,
      30.46077
    ]
  },
  {
    "RetailAccounts": "BEGGARS BANQUET",
    "Address": "1330 PRYTANIA ST",
    "City": "NEW ORLEANS",
    "State": "LA",
    "Zip Codes": "70130",
    "coordinates": [
      -90.073361,
      29.939076
    ]
  },
  {
    "RetailAccounts": "SUPER 1 FOODS #623",
    "Address": "3747 AMBASSADOR CAFFERY PKWY",
    "City": "LAFAYETTE",
    "State": "LA",
    "Zip Codes": "70503",
    "coordinates": [
      -92.065806,
      30.17271
    ]
  },
  {
    "RetailAccounts": "AUDUBON MARKET",
    "Address": "5452 LIVE OAK CENTER DR",
    "City": "ST FRANCISVILLE",
    "State": "LA",
    "Zip Codes": "70775",
    "coordinates": [
      -91.366513,
      30.786565
    ]
  },
  {
    "RetailAccounts": "Dixie Quick Mart",
    "Address": "7965 Old Mooringsport Rd",
    "City": "Shreveport",
    "State": "LA",
    "Zip Codes": "71107",
    "coordinates": [
      -93.89677,
      32.6152
    ]
  },
  {
    "RetailAccounts": "Walk Ons Bistreaux Bossie",
    "Address": "3010 Airline Drive",
    "City": "Bossier City",
    "State": "LA",
    "Zip Codes": "71111",
    "coordinates": [
      -93.710322,
      32.560741
    ]
  },
  {
    "RetailAccounts": "Walmart Sc 3868",
    "Address": "1125 Shreveport Barksdale",
    "City": "Shreveport",
    "State": "LA",
    "Zip Codes": "71105",
    "coordinates": [
      -93.705344,
      32.48368
    ]
  },
  {
    "RetailAccounts": "Bella Fresca",
    "Address": "6307 Line Avenue",
    "City": "Shreveport",
    "State": "LA",
    "Zip Codes": "71106",
    "coordinates": [
      -93.7457,
      32.44864
    ]
  },
  {
    "RetailAccounts": "CANSECOS ARABI MARKET",
    "Address": "6735 ST CLAUDE AVE",
    "City": "ARABI",
    "State": "LA",
    "Zip Codes": "70032",
    "coordinates": [
      -90.003402,
      29.957459
    ]
  },
  {
    "RetailAccounts": "TONORES WINE CELLAR LLC",
    "Address": "801 LOUISVILLE AVE",
    "City": "MONROE",
    "State": "LA",
    "Zip Codes": "71201",
    "coordinates": [
      -92.115855,
      32.511925
    ]
  },
  {
    "RetailAccounts": "WALMART NEIGHBORHOOD MARKET #5310",
    "Address": "15047 AIRLINE HWY",
    "City": "PRAIRIEVILLE",
    "State": "LA",
    "Zip Codes": "70769",
    "coordinates": [
      -90.95697,
      30.28466
    ]
  },
  {
    "RetailAccounts": "TURTLE BAY",
    "Address": "1119 DECATUR STREET",
    "City": "NEW ORLEANS",
    "State": "LA",
    "Zip Codes": "70116",
    "coordinates": [
      -90.059735,
      29.960301
    ]
  },
  {
    "RetailAccounts": "WALMART SUPERCENTER #1206",
    "Address": "3132 COLLEGE DR",
    "City": "BATON ROUGE",
    "State": "LA",
    "Zip Codes": "70808",
    "coordinates": [
      -91.142941,
      30.420757
    ]
  },
  {
    "RetailAccounts": "ROUSES MARKET #49",
    "Address": "91 WESTBANK EXPWY",
    "City": "GRETNA",
    "State": "LA",
    "Zip Codes": "70053",
    "coordinates": [
      -90.05132,
      29.912224
    ]
  },
  {
    "RetailAccounts": "BROOKSHIRES FRESH #801",
    "Address": "6991 OLD JACKSONVILLE HWY",
    "City": "TYLER",
    "State": "TX",
    "Zip Codes": "75703",
    "coordinates": [
      -95.340348,
      32.272118
    ]
  },
  {
    "RetailAccounts": "STEINS MARKET & DELI",
    "Address": "2207 MAGAZINE ST",
    "City": "NEW ORLEANS",
    "State": "LA",
    "Zip Codes": "70130",
    "coordinates": [
      -90.077118,
      29.929539
    ]
  },
  {
    "RetailAccounts": "SOUTH FIRST BAR AND GRILL",
    "Address": "118 SOUTH  FIRST STREET",
    "City": "LUFKIN",
    "State": "TX",
    "Zip Codes": "75904",
    "coordinates": [
      -94.729329,
      31.338484
    ]
  },
  {
    "RetailAccounts": "Smittys Pizza",
    "Address": "2525 Southside Drive",
    "City": "Shreveport",
    "State": "LA",
    "Zip Codes": "71118",
    "coordinates": [
      -93.795185,
      32.41261
    ]
  },
  {
    "RetailAccounts": "MARCELLOS WINE MARKET",
    "Address": "2800 JOHNSTON ST",
    "City": "LAFAYETTE",
    "State": "LA",
    "Zip Codes": "70503",
    "coordinates": [
      -92.03967,
      30.206939
    ]
  },
  {
    "RetailAccounts": "1ST STOP WINE & SPIRITS",
    "Address": "609 W HOUSTON STREET",
    "City": "LINDEN",
    "State": "TX",
    "Zip Codes": "75563",
    "coordinates": [
      -94.370735,
      33.011281
    ]
  },
  {
    "RetailAccounts": "ROUSES MARKET #84",
    "Address": "1810 CAMELLIA BLVD",
    "City": "LAFAYETTE",
    "State": "LA",
    "Zip Codes": "70508",
    "coordinates": [
      -92.025077,
      30.160091
    ]
  },
  {
    "RetailAccounts": "HARLEY S CUT RATE #22",
    "Address": "600 E MARSHALL AVE",
    "City": "LONGVIEW",
    "State": "TX",
    "Zip Codes": "75601",
    "coordinates": [
      -94.732162,
      32.50073
    ]
  },
  {
    "RetailAccounts": "LANGENSTEIN S SUPERMARKET (METAIRIE",
    "Address": "800 METAIRIE ROAD",
    "City": "METAIRIE",
    "State": "LA",
    "Zip Codes": "70005",
    "coordinates": [
      -90.131314,
      29.987486
    ]
  },
  {
    "RetailAccounts": "HOPKIN S ICEHOUSE CLUB",
    "Address": "301 EAST 3RD STREET",
    "City": "TEXARKANA",
    "State": "AR",
    "Zip Codes": "71854",
    "coordinates": [
      -94.039558,
      33.424412
    ]
  },
  {
    "RetailAccounts": "FLYING SAUCER DRAFT EMPOR",
    "Address": "323 E. PRESIDENT CLINTON",
    "City": "LITTLE ROCK",
    "State": "AR",
    "Zip Codes": "72201",
    "coordinates": [
      -92.273114,
      34.746468
    ]
  },
  {
    "RetailAccounts": "WALMART 4460",
    "Address": "12001 MAUMELLE BLVD.",
    "City": "NORTH LITTLE RO",
    "State": "AR",
    "Zip Codes": "72113",
    "coordinates": [
      -92.402916,
      34.852483
    ]
  },
  {
    "RetailAccounts": "Kroger Liquor Store 533",
    "Address": "9484 Ellerbe Road Ste 200",
    "City": "Shreveport",
    "State": "LA",
    "Zip Codes": "71106",
    "coordinates": [
      -93.729052,
      32.393701
    ]
  },
  {
    "RetailAccounts": "ALBERTSONS #0712",
    "Address": "9650 AIRLINE HWY",
    "City": "BATON ROUGE",
    "State": "LA",
    "Zip Codes": "70809",
    "coordinates": [
      -91.082927,
      30.432268
    ]
  },
  {
    "RetailAccounts": "Silver Star Grille",
    "Address": "9462 Ellerbe Road",
    "City": "Shreveport",
    "State": "LA",
    "Zip Codes": "71106",
    "coordinates": [
      -93.728946,
      32.395052
    ]
  },
  {
    "RetailAccounts": "OAK POINT FRESH MARKET CENTRAL",
    "Address": "14485 GREENWELL SPRINGS RD",
    "City": "GREENWELL SPRINGS",
    "State": "LA",
    "Zip Codes": "70818",
    "coordinates": [
      -91.028163,
      30.514398
    ]
  },
  {
    "RetailAccounts": "WALMART SUPERCENTER #98",
    "Address": "6091 MER ROUGE RD",
    "City": "BASTROP",
    "State": "LA",
    "Zip Codes": "71220",
    "coordinates": [
      -91.870221,
      32.775799
    ]
  },
  {
    "RetailAccounts": "BROOKSHIRES #51",
    "Address": "100 RICE RD",
    "City": "TYLER",
    "State": "TX",
    "Zip Codes": "75703",
    "coordinates": [
      -95.302806,
      32.293889
    ]
  },
  {
    "RetailAccounts": "MARKEY S BAR",
    "Address": "640 LOUISA STREET",
    "City": "NEW ORLEANS",
    "State": "LA",
    "Zip Codes": "70117",
    "coordinates": [
      -90.043947,
      29.963055
    ]
  },
  {
    "RetailAccounts": "Fete La",
    "Address": "1115 Highway 162 Ste B",
    "City": "Benton",
    "State": "LA",
    "Zip Codes": "71006",
    "coordinates": [
      -93.681016,
      32.711438
    ]
  },
  {
    "RetailAccounts": "GRIS GRIS",
    "Address": "1800 MAGAZINE ST",
    "City": "NEW ORLEANS",
    "State": "LA",
    "Zip Codes": "70130",
    "coordinates": [
      -90.073391,
      29.931807
    ]
  },
  {
    "RetailAccounts": "LYONS MARKET (JENNINGS)",
    "Address": "1326 N CUTTING AVE",
    "City": "JENNINGS",
    "State": "LA",
    "Zip Codes": "70546",
    "coordinates": [
      -92.654482,
      30.234437
    ]
  },
  {
    "RetailAccounts": "ALBERTSONS #3713",
    "Address": "15232 GEORGE ONEAL RD",
    "City": "BATON ROUGE",
    "State": "LA",
    "Zip Codes": "70817",
    "coordinates": [
      -91.015074,
      30.406368
    ]
  },
  {
    "RetailAccounts": "Super S",
    "Address": "3910 Roy Road",
    "City": "Shreveport",
    "State": "LA",
    "Zip Codes": "71107",
    "coordinates": [
      -93.84641,
      32.583455
    ]
  },
  {
    "RetailAccounts": "LUNA BAR & GRILL (LAKE CHARLES)",
    "Address": "719 RYAN ST",
    "City": "LAKE CHARLES",
    "State": "LA",
    "Zip Codes": "70601",
    "coordinates": [
      -93.216717,
      30.229827
    ]
  },
  {
    "RetailAccounts": "THE TAP ROOM (LAFAYETTE)",
    "Address": "201 SETTLERS TRACE BLVD #4001",
    "City": "LAFAYETTE",
    "State": "LA",
    "Zip Codes": "70508",
    "coordinates": [
      -92.036724,
      30.169445
    ]
  },
  {
    "RetailAccounts": "BOOZE BROTHERS LIQUOR",
    "Address": "138 EAST VAN BUREN",
    "City": "EUREKA SPRINGS",
    "State": "AR",
    "Zip Codes": "72632",
    "coordinates": [
      -93.73795,
      36.39185
    ]
  },
  {
    "RetailAccounts": "Circle K 4202",
    "Address": "5302 Airline Drive",
    "City": "Bossier City",
    "State": "LA",
    "Zip Codes": "71111",
    "coordinates": [
      -93.713448,
      32.61586
    ]
  },
  {
    "RetailAccounts": "CITY CAFE",
    "Address": "4710 ONEAL LANE STE 100",
    "City": "BATON ROUGE",
    "State": "LA",
    "Zip Codes": "70817",
    "coordinates": [
      -91.009511,
      30.409233
    ]
  },
  {
    "RetailAccounts": "ALBERTSONS #1311",
    "Address": "7515 PERKINS RD",
    "City": "BATON ROUGE",
    "State": "LA",
    "Zip Codes": "70808",
    "coordinates": [
      -91.109909,
      30.396609
    ]
  },
  {
    "RetailAccounts": "CARTERS SUPERMARKET (WALKER)",
    "Address": "29760 WALKER SOUTH RD",
    "City": "WALKER",
    "State": "LA",
    "Zip Codes": "70785",
    "coordinates": [
      -90.861704,
      30.487477
    ]
  },
  {
    "RetailAccounts": "East Bank Taphouse & Kitc",
    "Address": "310 Mansfield Street",
    "City": "Bossier City",
    "State": "LA",
    "Zip Codes": "71111",
    "coordinates": [
      -93.731129,
      32.516309
    ]
  },
  {
    "RetailAccounts": "ALBERTSONS #3215",
    "Address": "2265 S MACARTHUR DRIVE",
    "City": "ALEXANDRIA",
    "State": "LA",
    "Zip Codes": "71301",
    "coordinates": [
      -92.463435,
      31.274031
    ]
  },
  {
    "RetailAccounts": "Mayeaux Steak & Seafood",
    "Address": "512 Front Street",
    "City": "Natchitoches",
    "State": "LA",
    "Zip Codes": "71457",
    "coordinates": [
      -93.086307,
      31.759692
    ]
  },
  {
    "RetailAccounts": "Super S- Cotton Valley",
    "Address": "5956 Highway 160",
    "City": "Cotton Valley",
    "State": "LA",
    "Zip Codes": "71018",
    "coordinates": [
      -93.42341,
      32.82004
    ]
  },
  {
    "RetailAccounts": "Wind Rush Grill",
    "Address": "1023 Provenance Pl Ste170",
    "City": "Shreveport",
    "State": "LA",
    "Zip Codes": "71106",
    "coordinates": [
      -93.724715,
      32.356974
    ]
  },
  {
    "RetailAccounts": "ROUSES MARKET #64",
    "Address": "14635 AIRLINE HWY",
    "City": "GONZALES",
    "State": "LA",
    "Zip Codes": "70737",
    "coordinates": [
      -90.955108,
      30.28229
    ]
  },
  {
    "RetailAccounts": "WAL-MART #4114",
    "Address": "3812 GILMER ROAD",
    "City": "LONGVIEW",
    "State": "TX",
    "Zip Codes": "75604",
    "coordinates": [
      -94.79773,
      32.55522
    ]
  },
  {
    "RetailAccounts": "WALMART NEIGHBORHOOD MARKET #4659",
    "Address": "5255 HIGHLAND RD",
    "City": "BATON ROUGE",
    "State": "LA",
    "Zip Codes": "70808",
    "coordinates": [
      -91.160048,
      30.395325
    ]
  },
  {
    "RetailAccounts": "THEO S PIZZA (MAGAZINE)",
    "Address": "4218 MAGAZINE ST",
    "City": "NEW ORLEANS",
    "State": "LA",
    "Zip Codes": "70115",
    "coordinates": [
      -90.099624,
      29.920846
    ]
  },
  {
    "RetailAccounts": "ROUSES MARKET #16",
    "Address": "204 N CANAL BLVD",
    "City": "THIBODAUX",
    "State": "LA",
    "Zip Codes": "70301",
    "coordinates": [
      -90.818765,
      29.801286
    ]
  },
  {
    "RetailAccounts": "MATHERNES MARKET AT LSU",
    "Address": "85 GATEWAY CENTER LN",
    "City": "BATON ROUGE",
    "State": "LA",
    "Zip Codes": "70802",
    "coordinates": [
      -91.186948,
      30.447224
    ]
  },
  {
    "RetailAccounts": "ROUSES MARKET #20",
    "Address": "1200 HWY 190",
    "City": "COVINGTON",
    "State": "LA",
    "Zip Codes": "70433",
    "coordinates": [
      -90.116107,
      30.495614
    ]
  },
  {
    "RetailAccounts": "Hopdoddy Burger Bar",
    "Address": "1370 East 70th Street",
    "City": "Shreveport",
    "State": "LA",
    "Zip Codes": "71105",
    "coordinates": [
      -93.728188,
      32.444444
    ]
  },
  {
    "RetailAccounts": "IRON HAND LIQUOR",
    "Address": "992 E HENRI DE TONTI BLVD",
    "City": "SPRINGDALE",
    "State": "AR",
    "Zip Codes": "72762",
    "coordinates": [
      -94.218812,
      36.176517
    ]
  },
  {
    "RetailAccounts": "Cooter Browns Vault",
    "Address": "112 Croom Street",
    "City": "Mooringsport",
    "State": "LA",
    "Zip Codes": "71060",
    "coordinates": [
      -93.959039,
      32.692981
    ]
  },
  {
    "RetailAccounts": "ROYAL SONESTA HOTEL",
    "Address": "300 BOURBON ST",
    "City": "NEW ORLEANS",
    "State": "LA",
    "Zip Codes": "70130",
    "coordinates": [
      -90.067919,
      29.955684
    ]
  },
  {
    "RetailAccounts": "TASTING ROOM OF LOUISIANA",
    "Address": "812 THIRD ST",
    "City": "ALEXANDRIA",
    "State": "LA",
    "Zip Codes": "71301",
    "coordinates": [
      -92.445905,
      31.312091
    ]
  },
  {
    "RetailAccounts": "Fumbles",
    "Address": "3142 North Market",
    "City": "Shreveport",
    "State": "LA",
    "Zip Codes": "71107",
    "coordinates": [
      -93.784142,
      32.560138
    ]
  },
  {
    "RetailAccounts": "Circle K 2723771",
    "Address": "2651 Benton Road",
    "City": "Bossier City",
    "State": "LA",
    "Zip Codes": "71111",
    "coordinates": [
      -93.726327,
      32.554816
    ]
  },
  {
    "RetailAccounts": "Youree Hop In",
    "Address": "8590 Youree Drive",
    "City": "Shreveport",
    "State": "LA",
    "Zip Codes": "71115",
    "coordinates": [
      -93.70958,
      32.42659
    ]
  },
  {
    "RetailAccounts": "ROUSES MARKET #23",
    "Address": "2900 E MILTON AVE",
    "City": "YOUNGSVILLE",
    "State": "LA",
    "Zip Codes": "70592",
    "coordinates": [
      -92.014642,
      30.107865
    ]
  },
  {
    "RetailAccounts": "BROOKSHIRES  #39",
    "Address": "20100 S HWY 155",
    "City": "FLINT",
    "State": "TX",
    "Zip Codes": "75762",
    "coordinates": [
      -95.45659,
      32.157201
    ]
  },
  {
    "RetailAccounts": "BULLDOG (MAGAZINE)",
    "Address": "3236 MAGAZINE STREET",
    "City": "NEW ORLEANS",
    "State": "LA",
    "Zip Codes": "70115",
    "coordinates": [
      -90.087335,
      29.92339
    ]
  },
  {
    "RetailAccounts": "NEW ORLEANS MARRIOTT HOTEL",
    "Address": "555 CANAL STREET",
    "City": "NEW ORLEANS",
    "State": "LA",
    "Zip Codes": "70130",
    "coordinates": [
      -90.067582,
      29.95266
    ]
  },
  {
    "RetailAccounts": "ROUSES MARKET #32",
    "Address": "4350 HWY 22",
    "City": "MANDEVILLE",
    "State": "LA",
    "Zip Codes": "70471",
    "coordinates": [
      -90.100069,
      30.396245
    ]
  },
  {
    "RetailAccounts": "Brookshire s 66",
    "Address": "817 West Main Street",
    "City": "Homer",
    "State": "LA",
    "Zip Codes": "71040",
    "coordinates": [
      -93.057137,
      32.80079
    ]
  },
  {
    "RetailAccounts": "SULLIVANT S LIQUOR",
    "Address": "8122 CANTRELL",
    "City": "LITTLE ROCK",
    "State": "AR",
    "Zip Codes": "72207",
    "coordinates": [
      -92.36625,
      34.77725
    ]
  },
  {
    "RetailAccounts": "RIVER ROAD MARKET & DELI",
    "Address": "13572 RIVER RD",
    "City": "DESTREHAN",
    "State": "LA",
    "Zip Codes": "70047",
    "coordinates": [
      -90.380752,
      29.95158
    ]
  },
  {
    "RetailAccounts": "Steven s Country Store",
    "Address": "9011 Highway 157",
    "City": "Haughton",
    "State": "LA",
    "Zip Codes": "71037",
    "coordinates": [
      -93.515674,
      32.554137
    ]
  },
  {
    "RetailAccounts": "AMIS GROCERY",
    "Address": "603 JEFFERSON ST STE 130",
    "City": "LAFAYETTE",
    "State": "LA",
    "Zip Codes": "70501",
    "coordinates": [
      -92.018778,
      30.223725
    ]
  },
  {
    "RetailAccounts": "RUSTON GROCERIES",
    "Address": "2019 FARMERVILLE HWY",
    "City": "RUSTON",
    "State": "LA",
    "Zip Codes": "71270",
    "coordinates": [
      -92.611826,
      32.549045
    ]
  },
  {
    "RetailAccounts": "WALMART NBHD MKT #2919",
    "Address": "4430 DESIARD ST",
    "City": "MONROE",
    "State": "LA",
    "Zip Codes": "71201",
    "coordinates": [
      -92.067702,
      32.525185
    ]
  },
  {
    "RetailAccounts": "WINN DIXIE #1500",
    "Address": "4100 HWY 59",
    "City": "MANDEVILLE",
    "State": "LA",
    "Zip Codes": "70471",
    "coordinates": [
      -90.042989,
      30.410857
    ]
  },
  {
    "RetailAccounts": "WALMART SUPERCENTER #1106",
    "Address": "4283 CARTER ST",
    "City": "VIDALIA",
    "State": "LA",
    "Zip Codes": "71373",
    "coordinates": [
      -91.462452,
      31.577418
    ]
  },
  {
    "RetailAccounts": "Airline Exxon",
    "Address": "4903 Airline Drive Ste B",
    "City": "Bossier City",
    "State": "LA",
    "Zip Codes": "71111",
    "coordinates": [
      -93.71492,
      32.590634
    ]
  },
  {
    "RetailAccounts": "WAL-MART #226",
    "Address": "201 LOOP 59",
    "City": "ATLANTA",
    "State": "TX",
    "Zip Codes": "75551",
    "coordinates": [
      -94.184857,
      33.115504
    ]
  },
  {
    "RetailAccounts": "THE COMPANY BURGER",
    "Address": "4600 FRERET ST STE A",
    "City": "NEW ORLEANS",
    "State": "LA",
    "Zip Codes": "70115",
    "coordinates": [
      -90.105686,
      29.934748
    ]
  },
  {
    "RetailAccounts": "HARLEY S CUT-RATE #23",
    "Address": "4697 ESTES PARKWAY",
    "City": "LONGVIEW",
    "State": "TX",
    "Zip Codes": "75603",
    "coordinates": [
      -94.716903,
      32.425426
    ]
  },
  {
    "RetailAccounts": "MARKET ON MAGAZINE",
    "Address": "4237 MAGAZINE ST",
    "City": "NEW ORLEANS",
    "State": "LA",
    "Zip Codes": "70115",
    "coordinates": [
      -90.100112,
      29.921086
    ]
  },
  {
    "RetailAccounts": "AMERICAN LEGION #267",
    "Address": "1904 BOMAR ST",
    "City": "MARSHALL",
    "State": "TX",
    "Zip Codes": "75670",
    "coordinates": [
      -94.37085,
      32.528295
    ]
  },
  {
    "RetailAccounts": "ANGKOR WINE",
    "Address": "2001 W PLEASANT GROVE RD",
    "City": "ROGERS",
    "State": "AR",
    "Zip Codes": "72758",
    "coordinates": [
      -94.147641,
      36.283038
    ]
  },
  {
    "RetailAccounts": "THEO S PIZZA (HARRAHAN)",
    "Address": "1212 S CLEARVIEW PKWY",
    "City": "HARAHAN",
    "State": "LA",
    "Zip Codes": "70123",
    "coordinates": [
      -90.18515,
      29.95983
    ]
  },
  {
    "RetailAccounts": "WALMART NBHD MKT #2940",
    "Address": "5251 CYPRESS ST",
    "City": "WEST MONROE",
    "State": "LA",
    "Zip Codes": "71291",
    "coordinates": [
      -92.189436,
      32.515019
    ]
  },
  {
    "RetailAccounts": "Walmart Nm 3746",
    "Address": "412 West Bert Kouns",
    "City": "Shreveport",
    "State": "LA",
    "Zip Codes": "71106",
    "coordinates": [
      -93.770763,
      32.399522
    ]
  },
  {
    "RetailAccounts": "BARREL PROOF",
    "Address": "1201 MAGAZINE ST",
    "City": "NEW ORLEANS",
    "State": "LA",
    "Zip Codes": "70130",
    "coordinates": [
      -90.071203,
      29.939214
    ]
  },
  {
    "RetailAccounts": "Superior Bar And Grill",
    "Address": "6123 Line Avenue",
    "City": "Shreveport",
    "State": "LA",
    "Zip Codes": "71106",
    "coordinates": [
      -93.74549,
      32.450045
    ]
  },
  {
    "RetailAccounts": "DIVERSION PIZZA",
    "Address": "18773 HWY 22 STE C",
    "City": "MAUREPAS",
    "State": "LA",
    "Zip Codes": "70449",
    "coordinates": [
      -90.770314,
      30.25574
    ]
  },
  {
    "RetailAccounts": "JEWEL OF THE SOUTH",
    "Address": "1026 ST LOUIS ST",
    "City": "NEW ORLEANS",
    "State": "LA",
    "Zip Codes": "70112",
    "coordinates": [
      -90.069537,
      29.958545
    ]
  },
  {
    "RetailAccounts": "SKINNERS GROCERY & MARKET",
    "Address": "1708 JUDSON RD",
    "City": "LONGVIEW",
    "State": "TX",
    "Zip Codes": "75605",
    "coordinates": [
      -94.742015,
      32.526763
    ]
  },
  {
    "RetailAccounts": "Reynolds Country Store",
    "Address": "5461 La 527",
    "City": "Haughton",
    "State": "LA",
    "Zip Codes": "71037",
    "coordinates": [
      -93.455581,
      32.42627
    ]
  },
  {
    "RetailAccounts": "ROUSES MARKET #60",
    "Address": "2300 CHURCH ST BLDG #7",
    "City": "ZACHARY",
    "State": "LA",
    "Zip Codes": "70791",
    "coordinates": [
      -91.181048,
      30.651521
    ]
  },
  {
    "RetailAccounts": "CANTRELL WINE & SPIRITS",
    "Address": "7312 CANTRELL ROAD",
    "City": "LITTLE ROCK",
    "State": "AR",
    "Zip Codes": "72207",
    "coordinates": [
      -92.354755,
      34.770992
    ]
  },
  {
    "RetailAccounts": "WALMART SUPERCENTER #1110",
    "Address": "833 STERLINGTON HWY",
    "City": "FARMERVILLE",
    "State": "LA",
    "Zip Codes": "71241",
    "coordinates": [
      -92.39437,
      32.773497
    ]
  },
  {
    "RetailAccounts": "THE NEW ORLEANS VAMPIRE CAFE",
    "Address": "801 ROYAL ST",
    "City": "NEW ORLEANS",
    "State": "LA",
    "Zip Codes": "70116",
    "coordinates": [
      -90.064042,
      29.959017
    ]
  },
  {
    "RetailAccounts": "Superior Steakhouse",
    "Address": "855 Pierremont Road #400",
    "City": "Shreveport",
    "State": "LA",
    "Zip Codes": "71106",
    "coordinates": [
      -93.747782,
      32.453774
    ]
  },
  {
    "RetailAccounts": "WALMART NBHD MKT #4577",
    "Address": "321 W CALIFORNIA AVE",
    "City": "RUSTON",
    "State": "LA",
    "Zip Codes": "71270",
    "coordinates": [
      -92.642792,
      32.522848
    ]
  },
  {
    "RetailAccounts": "Elk s Club 122",
    "Address": "310 East Preston Street",
    "City": "Shreveport",
    "State": "LA",
    "Zip Codes": "71105",
    "coordinates": [
      -93.70579,
      32.47331
    ]
  },
  {
    "RetailAccounts": "Heron Mae & Co",
    "Address": "1023 Provenance Pl Ste200",
    "City": "Shreveport",
    "State": "LA",
    "Zip Codes": "71106",
    "coordinates": [
      -93.724715,
      32.356974
    ]
  },
  {
    "RetailAccounts": "BROOKSHIRE S #31",
    "Address": "1224 N PACIFIC AVE",
    "City": "MINEOLA",
    "State": "TX",
    "Zip Codes": "75773",
    "coordinates": [
      -95.48348,
      32.676099
    ]
  },
  {
    "RetailAccounts": "BOURBON STREET DRINKERY",
    "Address": "217 BOURBON ST",
    "City": "NEW ORLEANS",
    "State": "LA",
    "Zip Codes": "70130",
    "coordinates": [
      -90.069002,
      29.955122
    ]
  },
  {
    "RetailAccounts": "THE CHIMES RESTAURANT",
    "Address": "19130 W FRONT ST",
    "City": "COVINGTON",
    "State": "LA",
    "Zip Codes": "70433",
    "coordinates": [
      -90.08867,
      30.473548
    ]
  },
  {
    "RetailAccounts": "Hilton Garden Inn",
    "Address": "5971 Financial Plaza",
    "City": "Shreveport",
    "State": "LA",
    "Zip Codes": "71129",
    "coordinates": [
      -93.85674,
      32.451159
    ]
  },
  {
    "RetailAccounts": "Horseshoe (Pavillion)",
    "Address": "711-B Horseshoe Blvd",
    "City": "Bossier City",
    "State": "LA",
    "Zip Codes": "71111",
    "coordinates": [
      -93.737499,
      32.515078
    ]
  },
  {
    "RetailAccounts": "Flying Heart Brewing",
    "Address": "700 Barksdale Blvd",
    "City": "Bossier City",
    "State": "LA",
    "Zip Codes": "71111",
    "coordinates": [
      -93.732051,
      32.515573
    ]
  },
  {
    "RetailAccounts": "LIBRARY WINE & PROVISIONS",
    "Address": "7530 HWY 44 #103",
    "City": "GONZALES",
    "State": "LA",
    "Zip Codes": "70737",
    "coordinates": [
      -90.919642,
      30.182117
    ]
  },
  {
    "RetailAccounts": "Raceway 6733",
    "Address": "1025 East Bert Kouns Loop",
    "City": "Shreveport",
    "State": "LA",
    "Zip Codes": "71105",
    "coordinates": [
      -93.723479,
      32.412895
    ]
  },
  {
    "RetailAccounts": "WALMART SUPERCENTER #1204",
    "Address": "3451 NELSON RD",
    "City": "LAKE CHARLES",
    "State": "LA",
    "Zip Codes": "70605",
    "coordinates": [
      -93.246389,
      30.195181
    ]
  },
  {
    "RetailAccounts": "GOLDEN EAGLE BEER & WINE",
    "Address": "1970 HWY 259 SOUTH STE102",
    "City": "DIANA",
    "State": "TX",
    "Zip Codes": "75640",
    "coordinates": [
      -94.751686,
      32.700509
    ]
  },
  {
    "RetailAccounts": "SODIE S DISCOUNT LIQUOR",
    "Address": "NWQ PHOWNIX & LEIGH AVE",
    "City": "FORT SMITH",
    "State": "AR",
    "Zip Codes": "72903",
    "coordinates": [
      -94.351082,
      35.35281
    ]
  },
  {
    "RetailAccounts": "BLUE BAYOU RESTAURANT AND OYSTER BA",
    "Address": "717 CANAL ST",
    "City": "NEW ORLEANS",
    "State": "LA",
    "Zip Codes": "70130",
    "coordinates": [
      -90.069219,
      29.953726
    ]
  },
  {
    "RetailAccounts": "CARTERS SUPERMARKET (HATCHELL)",
    "Address": "1160 HATCHELL LN",
    "City": "DENHAM SPRINGS",
    "State": "LA",
    "Zip Codes": "70726",
    "coordinates": [
      -90.941608,
      30.499973
    ]
  },
  {
    "RetailAccounts": "Walgreen s 17338",
    "Address": "761 Pierremont Road",
    "City": "Shreveport",
    "State": "LA",
    "Zip Codes": "71106",
    "coordinates": [
      -93.745493,
      32.454231
    ]
  },
  {
    "RetailAccounts": "JOAQUIN QUICK STOP",
    "Address": "12762 HWY 84 US EAST",
    "City": "JOAQUIN",
    "State": "TX",
    "Zip Codes": "75954",
    "coordinates": [
      -94.02065,
      31.96894
    ]
  },
  {
    "RetailAccounts": "DATTHE ALPINE LIQUOR CENT",
    "Address": "2036 EAST VAN BUREN",
    "City": "EUREKA SPRINGS",
    "State": "AR",
    "Zip Codes": "72632",
    "coordinates": [
      -93.733271,
      36.38879
    ]
  },
  {
    "RetailAccounts": "FINE WINE AND LIQUOR",
    "Address": "529 HUDSON AVE",
    "City": "JONESBORO",
    "State": "LA",
    "Zip Codes": "71251",
    "coordinates": [
      -92.712927,
      32.240088
    ]
  },
  {
    "RetailAccounts": "SEYMOUR S QUICK STOP #2",
    "Address": "1298 E BROADWAY AVE",
    "City": "GLADEWATER",
    "State": "TX",
    "Zip Codes": "75647",
    "coordinates": [
      -94.928436,
      32.533481
    ]
  },
  {
    "RetailAccounts": "SPRING MARKET #730",
    "Address": "1320 HWY 2",
    "City": "STERLINGTON",
    "State": "LA",
    "Zip Codes": "71280",
    "coordinates": [
      -92.048679,
      32.681519
    ]
  },
  {
    "RetailAccounts": "BROOKSHIRE S #43",
    "Address": "402 E. MAIN STREET",
    "City": "ATLANTA",
    "State": "TX",
    "Zip Codes": "75551",
    "coordinates": [
      -94.161081,
      33.112178
    ]
  },
  {
    "RetailAccounts": "WALMART 0001",
    "Address": "2110 WEST WALNUT STREET",
    "City": "ROGERS",
    "State": "AR",
    "Zip Codes": "72756",
    "coordinates": [
      -94.149024,
      36.3313
    ]
  },
  {
    "RetailAccounts": "Chiangmai Mai Thai Kitche",
    "Address": "1244 Shreveport Barksdale",
    "City": "Shreveport",
    "State": "LA",
    "Zip Codes": "71105",
    "coordinates": [
      -93.705479,
      32.488238
    ]
  },
  {
    "RetailAccounts": "Mira Truck Stop",
    "Address": "6950 Mira Myrtis Road",
    "City": "Mira",
    "State": "LA",
    "Zip Codes": "71044",
    "coordinates": [
      -93.894343,
      32.944554
    ]
  },
  {
    "RetailAccounts": "SUPER 1 FOODS #631",
    "Address": "207 N E END BLVD N",
    "City": "MARSHALL",
    "State": "TX",
    "Zip Codes": "75670",
    "coordinates": [
      -94.34993,
      32.561612
    ]
  },
  {
    "RetailAccounts": "MID CITY YACHT CLUB",
    "Address": "440 ST PATRICK ST",
    "City": "NEW ORLEANS",
    "State": "LA",
    "Zip Codes": "70119",
    "coordinates": [
      -90.109765,
      29.975255
    ]
  },
  {
    "RetailAccounts": "A & M FOOD STORE",
    "Address": "1741 MCSHANE PLACE",
    "City": "NEW ORLEANS",
    "State": "LA",
    "Zip Codes": "70116",
    "coordinates": [
      -90.061936,
      29.967965
    ]
  },
  {
    "RetailAccounts": "Louisiana Downs",
    "Address": "8000 East Texas Street",
    "City": "Bossier City",
    "State": "LA",
    "Zip Codes": "71111",
    "coordinates": [
      -93.625028,
      32.546666
    ]
  },
  {
    "RetailAccounts": "Brookshire s 21",
    "Address": "205 Homer Road",
    "City": "Minden",
    "State": "LA",
    "Zip Codes": "71055",
    "coordinates": [
      -93.253349,
      32.624745
    ]
  },
  {
    "RetailAccounts": "Swoop Store 91",
    "Address": "109 East Bert Kouns Loop",
    "City": "Shreveport",
    "State": "LA",
    "Zip Codes": "71106",
    "coordinates": [
      -93.749247,
      32.397874
    ]
  },
  {
    "RetailAccounts": "HERITAGE WINE & SPIRITS",
    "Address": "2000 N EASTMAN ROAD",
    "City": "LONGVIEW",
    "State": "TX",
    "Zip Codes": "75601",
    "coordinates": [
      -94.715596,
      32.520905
    ]
  },
  {
    "RetailAccounts": "KUNTRY KORNER",
    "Address": "3156 HWY 80 W",
    "City": "CALHOUN",
    "State": "LA",
    "Zip Codes": "71225",
    "coordinates": [
      -92.363642,
      32.512798
    ]
  },
  {
    "RetailAccounts": "BIRDIES FOOD AND FUEL",
    "Address": "2372 CONSTANCE ST",
    "City": "NEW ORLEANS",
    "State": "LA",
    "Zip Codes": "70130",
    "coordinates": [
      -90.07843,
      29.927152
    ]
  },
  {
    "RetailAccounts": "3 WAY DISCOUNT TOBACCO & BEER",
    "Address": "25765 HWY 16 STE A",
    "City": "DENHAM SPRINGS",
    "State": "LA",
    "Zip Codes": "70726",
    "coordinates": [
      -90.944886,
      30.441761
    ]
  },
  {
    "RetailAccounts": "GREENSIDE BEVERAGE CO",
    "Address": "102 N GREEN STREET",
    "City": "LONGVIEW",
    "State": "TX",
    "Zip Codes": "75601",
    "coordinates": [
      -94.73716,
      32.49392
    ]
  },
  {
    "RetailAccounts": "COWBURNERS",
    "Address": "109 N. JOHNSON ST",
    "City": "MINEOLA",
    "State": "TX",
    "Zip Codes": "75773",
    "coordinates": [
      -95.489321,
      32.664062
    ]
  },
  {
    "RetailAccounts": "RADIO BAR",
    "Address": "3079 B GOVERNMENT ST",
    "City": "BATON ROUGE",
    "State": "LA",
    "Zip Codes": "70806",
    "coordinates": [
      -91.128588,
      30.444784
    ]
  },
  {
    "RetailAccounts": "ROTOLO S PIZZERIA",
    "Address": "3407 N FOURTH ST SUITE101",
    "City": "LONGVIEW",
    "State": "TX",
    "Zip Codes": "75605",
    "coordinates": [
      -94.731877,
      32.545624
    ]
  },
  {
    "RetailAccounts": "OAK POINT FRESH MARKET (DENHAM SPRI",
    "Address": "35045 HWY 16",
    "City": "DENHAM SPRINGS",
    "State": "LA",
    "Zip Codes": "70706",
    "coordinates": [
      -90.957502,
      30.57516
    ]
  },
  {
    "RetailAccounts": "GATEWAY TRAVEL PLAZA/CART",
    "Address": "1086 HWY 59 SOUTH",
    "City": "CARTHAGE",
    "State": "TX",
    "Zip Codes": "75633",
    "coordinates": [
      -94.332965,
      32.129407
    ]
  },
  {
    "RetailAccounts": "TURPIN CHEVRON INC",
    "Address": "4411 COLISEUM BLVD STE A",
    "City": "ALEXANDRIA",
    "State": "LA",
    "Zip Codes": "71303",
    "coordinates": [
      -92.492205,
      31.295409
    ]
  },
  {
    "RetailAccounts": "FELIXS RESTAURANT & OYSTER BAR",
    "Address": "739 IBERVILLE ST",
    "City": "NEW ORLEANS",
    "State": "LA",
    "Zip Codes": "70130",
    "coordinates": [
      -90.068927,
      29.954644
    ]
  },
  {
    "RetailAccounts": "ALEXANDERS HIGHLAND MARKET",
    "Address": "18111 HIGHLAND RD",
    "City": "BATON ROUGE",
    "State": "LA",
    "Zip Codes": "70810",
    "coordinates": [
      -91.027878,
      30.347861
    ]
  },
  {
    "RetailAccounts": "Brookshire s 25",
    "Address": "388 East Bert Kouns",
    "City": "Shreveport",
    "State": "LA",
    "Zip Codes": "71106",
    "coordinates": [
      -93.770763,
      32.399522
    ]
  },
  {
    "RetailAccounts": "Barksdale Collocated Club",
    "Address": "644 Davis Avenue",
    "City": "Barksdale Afb",
    "State": "LA",
    "Zip Codes": "71110",
    "coordinates": [
      -93.68227,
      32.509472
    ]
  },
  {
    "RetailAccounts": "WAL-MART S/CENTER #572",
    "Address": "1201 STONE ROAD",
    "City": "KILGORE",
    "State": "TX",
    "Zip Codes": "75662",
    "coordinates": [
      -94.860776,
      32.391944
    ]
  },
  {
    "RetailAccounts": "TRAPPS",
    "Address": "113 S. RIVERFRONT ST",
    "City": "WEST MONROE",
    "State": "LA",
    "Zip Codes": "71291",
    "coordinates": [
      -92.121072,
      32.499789
    ]
  },
  {
    "RetailAccounts": "Circle K 8190",
    "Address": "9009 Youree Drive",
    "City": "Shreveport",
    "State": "LA",
    "Zip Codes": "71115",
    "coordinates": [
      -93.700305,
      32.412609
    ]
  },
  {
    "RetailAccounts": "BROOKSHIRES #38",
    "Address": "1014 STERLINGTON HWY",
    "City": "FARMERVILLE",
    "State": "LA",
    "Zip Codes": "75710",
    "coordinates": [
      -92.390849,
      32.768514
    ]
  },
  {
    "RetailAccounts": "ROBERT FRESH MARKET #128",
    "Address": "5016 WEST ESPLANADE AVENUE",
    "City": "METAIRIE",
    "State": "LA",
    "Zip Codes": "70006",
    "coordinates": [
      -90.199599,
      30.016312
    ]
  },
  {
    "RetailAccounts": "WALMART NBHD MKT #3743",
    "Address": "2400 CYPRESS ST",
    "City": "WEST MONROE",
    "State": "LA",
    "Zip Codes": "71291",
    "coordinates": [
      -92.144502,
      32.519569
    ]
  },
  {
    "RetailAccounts": "BROADWAY FOOD STORE",
    "Address": "2223 BROADWAY STREET",
    "City": "NEW ORLEANS",
    "State": "LA",
    "Zip Codes": "70118",
    "coordinates": [
      -90.116173,
      29.95053
    ]
  },
  {
    "RetailAccounts": "THE BULLDOG (PERKINS)",
    "Address": "4385 PERKINS RD STE 15",
    "City": "BATON ROUGE",
    "State": "LA",
    "Zip Codes": "70808",
    "coordinates": [
      -91.144928,
      30.417852
    ]
  },
  {
    "RetailAccounts": "ROUSES MARKET #72",
    "Address": "351 SAM HOUSTON PKWY",
    "City": "MOSS BLUFF",
    "State": "LA",
    "Zip Codes": "70611",
    "coordinates": [
      -93.200598,
      30.300327
    ]
  },
  {
    "RetailAccounts": "ROUSES MARKET #71",
    "Address": "800 CARLYS BOULEVARD",
    "City": "SULPHUR",
    "State": "LA",
    "Zip Codes": "70665",
    "coordinates": [
      -93.37533,
      30.20074
    ]
  },
  {
    "RetailAccounts": "SUPER 1 FOODS #609",
    "Address": "2951 COTTINGHAM EXPY",
    "City": "PINEVILLE",
    "State": "LA",
    "Zip Codes": "71360",
    "coordinates": [
      -92.415972,
      31.355426
    ]
  },
  {
    "RetailAccounts": "ZIPPS LIQUOR #26",
    "Address": "500 E END BLVD S",
    "City": "MARSHALL",
    "State": "TX",
    "Zip Codes": "75672",
    "coordinates": [
      -94.34884,
      32.54162
    ]
  },
  {
    "RetailAccounts": "VERTI MART",
    "Address": "1201 ROYAL STREET",
    "City": "NEW ORLEANS",
    "State": "LA",
    "Zip Codes": "70116",
    "coordinates": [
      -90.061178,
      29.962099
    ]
  },
  {
    "RetailAccounts": "Lucky Joe s Lounge",
    "Address": "639 East Kings Highway",
    "City": "Shreveport",
    "State": "LA",
    "Zip Codes": "71105",
    "coordinates": [
      -93.720101,
      32.479772
    ]
  },
  {
    "RetailAccounts": "WAREHOUSE LIQUOR-BROADWAY",
    "Address": "860 EAST BROADWAY",
    "City": "NORTH LITTLE RO",
    "State": "AR",
    "Zip Codes": "72114",
    "coordinates": [
      -90.100586,
      35.80743
    ]
  },
  {
    "RetailAccounts": "NESBITS JULIA STREET MARKET",
    "Address": "333 JULIA STREET UNIT 1",
    "City": "NEW ORLEANS",
    "State": "LA",
    "Zip Codes": "70130",
    "coordinates": [
      -90.066973,
      29.945189
    ]
  },
  {
    "RetailAccounts": "WALMART SUPERCENTER #0541",
    "Address": "880 N HWY 190",
    "City": "COVINGTON",
    "State": "LA",
    "Zip Codes": "70433",
    "coordinates": [
      -90.078758,
      30.443284
    ]
  },
  {
    "RetailAccounts": "SMOKER FRIENDLY - RODNEY",
    "Address": "11600 RODNEY PARHAM",
    "City": "LITTLE ROCK",
    "State": "AR",
    "Zip Codes": "72212",
    "coordinates": [
      -92.40198,
      34.772821
    ]
  },
  {
    "RetailAccounts": "DAQS WINGS & GRILL",
    "Address": "2217 FORSYTHE AVE",
    "City": "MONROE",
    "State": "LA",
    "Zip Codes": "71201",
    "coordinates": [
      -92.105994,
      32.536694
    ]
  },
  {
    "RetailAccounts": "PIZZA DOMENICA (MAGAZINE)",
    "Address": "4933 MAGAZINE ST",
    "City": "NEW ORLEANS",
    "State": "LA",
    "Zip Codes": "70115",
    "coordinates": [
      -90.108895,
      29.920444
    ]
  },
  {
    "RetailAccounts": "Pierremont Oaks Tennis Cl",
    "Address": "578 Spring Lake Road",
    "City": "Shreveport",
    "State": "LA",
    "Zip Codes": "71106",
    "coordinates": [
      -93.737061,
      32.432526
    ]
  },
  {
    "RetailAccounts": "WILLIE S BOIL HOUSE",
    "Address": "336 DECATUR ST",
    "City": "NEW ORLEANS",
    "State": "LA",
    "Zip Codes": "70130",
    "coordinates": [
      -90.064946,
      29.954218
    ]
  },
  {
    "RetailAccounts": "BUSTER S LIQUOR  FINE WIN",
    "Address": "2811 WEST WALNUT STREET",
    "City": "ROGERS",
    "State": "AR",
    "Zip Codes": "72756",
    "coordinates": [
      -94.15589,
      36.33489
    ]
  },
  {
    "RetailAccounts": "SUPER 1 FOODS #642",
    "Address": "172 CENTENNIAL PARKWAY",
    "City": "TYLER",
    "State": "TX",
    "Zip Codes": "75703",
    "coordinates": [
      -95.30589,
      32.253659
    ]
  },
  {
    "RetailAccounts": "AUNTIE SKINNERS RIVERBOAT",
    "Address": "107 W AUSTIN",
    "City": "JEFFERSON",
    "State": "TX",
    "Zip Codes": "75657",
    "coordinates": [
      -94.344711,
      32.756756
    ]
  },
  {
    "RetailAccounts": "BROOKSHIRE S #3",
    "Address": "521 MAIN ST",
    "City": "LINDALE",
    "State": "TX",
    "Zip Codes": "75771",
    "coordinates": [
      -95.410177,
      32.511166
    ]
  },
  {
    "RetailAccounts": "THEO S PIZZA (METAIRIE)",
    "Address": "2125 VETERANS MEMORIAL BLVD",
    "City": "METAIRIE",
    "State": "LA",
    "Zip Codes": "70002",
    "coordinates": [
      -90.146318,
      30.003219
    ]
  },
  {
    "RetailAccounts": "JOEY KS RESTAURANT",
    "Address": "3001 MAGAZINE STREET",
    "City": "NEW ORLEANS",
    "State": "LA",
    "Zip Codes": "70115",
    "coordinates": [
      -90.084847,
      29.925085
    ]
  },
  {
    "RetailAccounts": "THE BARLEY OAK",
    "Address": "2101 LAKESHORE DR",
    "City": "MANDEVILLE",
    "State": "LA",
    "Zip Codes": "70448",
    "coordinates": [
      -90.070334,
      30.353999
    ]
  },
  {
    "RetailAccounts": "PALACE CAFE",
    "Address": "605 CANAL STREET",
    "City": "NEW ORLEANS",
    "State": "LA",
    "Zip Codes": "70130",
    "coordinates": [
      -90.06816,
      29.952926
    ]
  },